Agent,Route#,CID,Dealer Name,City,ST,Zip,ETA,ETD,Fixed Time,Cube,Open,Close,Delivery X-Dock,Special Eq,Lanter ID,Facing PDC,LATITUDE,LONGITUDE,GEORESULT
TOMASEK-BISMARCK,NDBI.BIS.FAR3,DRE,RDO Equipment,BISMARCK,ND,58504,07:12:00,07:27:00,15,128,03:30:00,08:00:00,"BISMARCK, ND",,L804223,MILAN LW,46.7952,-100.7658,MANUAL
TOMASEK-BISMARCK,NDBI.BIS.FAR3,FRD,EIDE F/M INC.,BISMARCK,ND,58504-6504,07:32:00,08:02:00,30,168,06:00:00,10:00:00,"BISMARCK, ND",@600,L000190,MENOMONIE,46.7951,-100.78,Exact
TOMASEK-BISMARCK,NDBI.BIS.FAR3,HUB,WEST FARGO DOCK,WEST FARGO,ND,58078,02:30:00,03:30:00,60,0,02:30:00,02:30:00,"BISMARCK, ND",,,,46.8837,-96.9147,Exact
TOMASEK-BISMARCK,NDBI.BIS.FAR3,TOY,THEEL TOYOTA,BISMARCK,ND,58503-0751,08:14:00,08:34:00,20,224,06:30:00,10:00:00,"BISMARCK, ND",,L800743,KANSAS CITY,46.8335,-100.7284,Exact
TOMASEK-BISMARCK,NDBI.BIS.FAR3,VOL,RDO TRK CTR,BISMARCK,ND,58504-7708,06:57:00,07:07:00,10,112,06:00:00,09:00:00,"BISMARCK, ND",@600,L003130,JOLIET,46.7954,-100.7447,Exact
TOMASEK-BISMARCK,NDBI.BIS1,DRE,GOOSENECK IMPLEMENT COMPANY,WILLISTON,ND,58801-7220,06:05:00,06:20:00,15,224,01:30:00,08:00:00,"BISMARCK, ND",@130,L804264,MILAN LW,48.1939,-103.6261,Exact
TOMASEK-BISMARCK,NDBI.BIS1,DRE,GOOSENECK IMPLEMENT COMPANY,STANLEY,ND,58784-9404,04:27:00,04:34:00,7,224,01:30:00,08:30:00,"BISMARCK, ND",@130,L804258,MILAN LW,48.331,-102.3879,Exact
TOMASEK-BISMARCK,NDBI.BIS1,DRE,RDO Equipment,WILLISTON,ND,58801-8623,07:02:00,07:14:00,12,112,07:00:00,10:00:00,"BISMARCK, ND",@130,L804263,MILAN LW,48.1253,-103.7246,Exact
TOMASEK-BISMARCK,NDBI.BIS1,PAC,ALLSTATE PB OF WILLISTON,Williston,ND,58801,05:40:00,05:53:00,13,224,01:30:00,08:30:00,"BISMARCK, ND",@130,L904018,ROCKFORD,48.2561,-103.6211,Exact
TOMASEK-BISMARCK,NDBI.BIS1,PAC,WALLWORK KENWORTH,Williston,ND,58801,06:37:00,06:56:00,19,336,01:30:00,09:30:00,"BISMARCK, ND",@130,L904019,ROCKFORD,48.1464,-103.7271,Exact
TOMASEK-BISMARCK,NDBI.BIS1,PAC,WALLWORK KENWORTH-MINOT,Minot,ND,58701,03:15:00,03:28:00,13,336,01:30:00,08:00:00,"BISMARCK, ND",@130,L904021,ROCKFORD,48.2113,-101.2587,Exact
TOMASEK-BISMARCK,NDBI.BIS10,CHR,CHARBONNEAU CHRYSLER CENTER,DICKINSON,ND,58601-5027,07:28:00,07:30:00,2,112,06:00:00,13:00:00,"BISMARCK, ND",@600,L902458,MINNEAPOLIS,46.8802,-102.7909,Exact
TOMASEK-BISMARCK,NDBI.BIS10,CNH,TITAN MACHINERY INC.,DICKINSON,ND,58601-7185,08:19:00,08:29:00,10,28,06:00:00,12:00:00,"BISMARCK, ND",@600,L904697,CAMERON,46.8849,-102.7367,Exact
TOMASEK-BISMARCK,NDBI.BIS10,CNH,"WEST PLAINS, INC.",DICKINSON,ND,58601-7514,07:12:00,07:22:00,10,84,06:00:00,11:00:00,"BISMARCK, ND",@600,L904702,CAMERON,46.879,-102.7607,Exact
TOMASEK-BISMARCK,NDBI.BIS10,DRE,RDO Equipment,DICKINSON,ND,58601-9420,06:07:00,06:22:00,15,154,01:30:00,10:00:00,"BISMARCK, ND",@130,L804229,MILAN LW,46.9332,-102.7908,Exact
TOMASEK-BISMARCK,NDBI.BIS10,FRD,RED ROCK FORD,DICKINSON,ND,58601-7132,06:36:00,06:51:00,15,112,06:00:00,14:00:00,"BISMARCK, ND",@600,L000167,MENOMONIE,46.8836,-102.7457,Exact
TOMASEK-BISMARCK,NDBI.BIS10,GM,CHARBONNEAU BUICK,DICKINSON,ND,58601-5027,07:30:00,07:40:00,10,56,06:00:00,14:00:00,"BISMARCK, ND",@600,L001003,HUDSON,46.8802,-102.7909,Exact
TOMASEK-BISMARCK,NDBI.BIS10,GM,SAX MOTOR CO,DICKINSON,ND,58601-5025,07:41:00,08:11:00,30,112,06:00:00,14:00:00,"BISMARCK, ND",@600,L001031,HUDSON,46.8791,-102.7903,Exact
TOMASEK-BISMARCK,NDBI.BIS10,TOY,PORTER MOTORS,DICKINSON,ND,58601-7128,06:53:00,07:08:00,15,112,06:30:00,14:00:00,"BISMARCK, ND",@630,L800745,KANSAS CITY,46.8823,-102.75,Exact
TOMASEK-BISMARCK,NDBI.BIS2,DRE,GOOSENECK IMPLEMENT COMPANY,ELGIN,ND,58533-7147,01:26:00,01:38:00,12,336,01:30:00,10:00:00,"BISMARCK, ND",@130,L804231,MILAN LW,46.4023,-101.8453,Exact
TOMASEK-BISMARCK,NDBI.BIS2,DRE,GOOSENECK IMPLEMENT COMPANY,BOWMAN,ND,58623-9752,03:44:00,03:56:00,12,336,01:30:00,10:00:00,"BISMARCK, ND",@130,L804224,MILAN LW,46.1775,-103.3761,Exact
TOMASEK-BISMARCK,NDBI.BIS2,DRE,GOOSENECK IMPLEMENT COMPANY,LEMMON,SD,57638-2203,02:28:00,02:40:00,12,224,01:30:00,10:00:00,"BISMARCK, ND",@130,L804278,MILAN LW,45.9349,-102.1631,Exact
TOMASEK-BISMARCK,NDBI.BIS2,DRE,GOOSENECK IMPLEMENT COMPANY,DICKINSON,ND,58601-7129,05:42:00,05:57:00,15,336,01:30:00,10:00:00,"BISMARCK, ND",@130,L804230,MILAN LW,46.8821,-102.7504,Exact
TOMASEK-BISMARCK,NDBI.BIS2,PAC,ALLSTATE PB OF DICKINSON,DICKINSON,ND,58601,06:04:00,06:14:00,10,112,01:30:00,10:00:00,"BISMARCK, ND",@130,L903987,ROCKFORD,46.8861,-102.7281,Exact
TOMASEK-BISMARCK,NDBI.BIS2,PAC,WALLWORK KENWORTH-DICKINSON,Dickinson,ND,58601,05:13:00,05:26:00,13,224,01:30:00,10:00:00,"BISMARCK, ND",@130,L904020,ROCKFORD,46.8752,-102.8484,Exact
TOMASEK-CHICAGO,ILBE.AUR.TOY.4,TOY,Lexus of Naperville,Naperville,IL,60540,05:32:00,05:47:00,15,0,20:00:00,07:00:00,"AURORA.TOY PDC, IL",,L904496,CHICAGO,41.7633,-88.1954,Exact
TOMASEK-CHICAGO,ILBE.AUR.TOY.4,TOY,Lexus of Naperville,Naperville,IL,60540,23:52:00,00:07:00,15,85,20:00:00,07:00:00,"AURORA.TOY PDC, IL",,L904496,CHICAGO,41.7633,-88.1954,Exact
TOMASEK-CHICAGO,ILBE.AUR.TOY.4,TOY,Lexus of Orland,Orland Park,IL,60462,01:59:00,02:14:00,15,86,20:00:00,07:00:00,"AURORA.TOY PDC, IL",,L904500,CHICAGO,41.6019,-87.8203,Exact
TOMASEK-CHICAGO,ILBE.AUR.TOY.4,TOY,Orland Toyota,Tinley Park,IL,60487,01:40:00,01:55:00,15,70,20:00:00,07:00:00,"AURORA.TOY PDC, IL",,L904499,CHICAGO,41.6017,-87.8255,Exact
TOMASEK-CHICAGO,ILBE.AUR.TOY.4,TOY,Romeoville Toyota,Romeoville,IL,60446,04:30:00,04:45:00,15,53,20:00:00,07:00:00,"AURORA.TOY PDC, IL",,L904503,CHICAGO,41.5986,-88.1229,Exact
TOMASEK-CHICAGO,ILBE.AUR.TOY.4,TOY,Toyota of Bourbonnais,Bourbonnais,IL,60914,03:25:00,03:40:00,15,46,20:00:00,07:00:00,"AURORA.TOY PDC, IL",,L904502,CHICAGO,41.1627,-87.8865,Exact
TOMASEK-CHICAGO,ILBE.AUR.TOY.4,TOY,Toyota of Naperville,Naperville,IL,60540,00:13:00,00:28:00,15,145,20:00:00,07:00:00,"AURORA.TOY PDC, IL",,L904497,CHICAGO,41.7732,-88.1864,Exact
TOMASEK-CHICAGO,ILBE.AUR.TOY.4,TOY,Toyota of Naperville,Naperville,IL,60540,05:11:00,05:26:00,15,0,20:00:00,07:00:00,"AURORA.TOY PDC, IL",,L904497,CHICAGO,41.7732,-88.1864,Exact
TOMASEK-CHICAGO,ILBE.AUR.TOY.5,TOY,Arlington Toyota,Palatine,IL,60074,04:45:00,05:05:00,20,197,04:45:00,08:00:00,"AURORA.TOY PDC, IL",,L904511,CHICAGO,42.1479,-88.0313,Exact
TOMASEK-CHICAGO,ILBE.AUR.TOY.5,TOY,Bredemann Toyota,Park Ridge,IL,60068,03:09:00,03:24:00,15,92,20:00:00,07:00:00,"AURORA.TOY PDC, IL",,L002606,CHICAGO,42.0394,-87.8426,Exact
TOMASEK-CHICAGO,ILBE.AUR.TOY.5,TOY,Fields Lexus,Glenview,IL,60025,03:38:00,03:53:00,15,83,20:00:00,07:00:00,"AURORA.TOY PDC, IL",,L904510,CHICAGO,42.0912,-87.7979,Exact
TOMASEK-CHICAGO,ILBE.AUR.TOY.5,TOY,Lombard Toyota,Lombard,IL,60148,01:21:00,01:36:00,15,65,20:00:00,07:00:00,"AURORA.TOY PDC, IL",,L904504,CHICAGO,41.8599,-88.02,Exact
TOMASEK-CHICAGO,ILBE.AUR.TOY.5,TOY,McGrath of Elmhurst,Elmhurst,IL,60126,01:55:00,02:10:00,15,87,20:00:00,07:00:00,"AURORA.TOY PDC, IL",,L904506,CHICAGO,41.9184,-87.9528,Exact
TOMASEK-CHICAGO,ILBE.AUR.TOY.5,TOY,Toyota of Lincolnwood,Lincolnwood,IL,60712,02:38:00,02:53:00,15,99,20:00:00,07:00:00,"AURORA.TOY PDC, IL",,L904509,CHICAGO,42.0132,-87.7478,Exact
TOMASEK-CHICAGO,ILBE.AUR.TOY.5,TOY,Toyota on Edens,Northbrook,IL,60062,04:04:00,04:19:00,15,58,20:00:00,07:00:00,"AURORA.TOY PDC, IL",,L904505,CHICAGO,42.1243,-87.7831,Exact
TOMASEK-CHICAGO,ILBE.AUR.TOY.6,TOY,Elgin Toyota,Streamwood,IL,60107,01:28:00,01:43:00,15,141,20:00:00,07:00:00,"AURORA.TOY PDC, IL",,L904514,CHICAGO,42.013,-88.2173,Exact
TOMASEK-CHICAGO,ILBE.AUR.TOY.6,TOY,Lexus of Arlington,Arlington Heights,IL,60004,02:40:00,02:55:00,15,126,20:00:00,07:00:00,"AURORA.TOY PDC, IL",,L904516,CHICAGO,42.1393,-88.0016,Exact
TOMASEK-CHICAGO,ILBE.AUR.TOY.6,TOY,Lexus of Highland Park,Highland Park,IL,60035,03:23:00,03:38:00,15,62,20:00:00,07:00:00,"AURORA.TOY PDC, IL",,L904517,CHICAGO,42.2058,-87.8367,Exact
TOMASEK-CHICAGO,ILBE.AUR.TOY.6,TOY,Libertyville Toyota,Libertyville,IL,60048,03:57:00,04:12:00,15,116,20:00:00,07:00:00,"AURORA.TOY PDC, IL",,L904520,CHICAGO,42.2649,-87.9494,Exact
TOMASEK-CHICAGO,ILBE.AUR.TOY.6,TOY,Pauly Toyota,Crystal Lake,IL,60014,05:23:00,05:38:00,15,77,20:00:00,07:00:00,"AURORA.TOY PDC, IL",,L904518,CHICAGO,42.2124,-88.2864,Exact
TOMASEK-CHICAGO,ILBE.AUR.TOY.6,TOY,St. Charles Toyota,St. Charles,IL,60174,00:52:00,01:07:00,15,56,20:00:00,07:00:00,"AURORA.TOY PDC, IL",,L904512,CHICAGO,41.9212,-88.2813,Exact
TOMASEK-CHICAGO,ILBE.AUR.TOY.6,TOY,Toyota of Fox Lake,Fox Lake,IL,60020,04:38:00,04:53:00,15,88,20:00:00,07:00:00,"AURORA.TOY PDC, IL",,L904519,CHICAGO,42.3919,-88.1818,Exact
TOMASEK-CHICAGO,ILBE.AUR.TOY.6,TOY,Woodfield Lexus,Schaumburg,IL,60173,02:05:00,02:20:00,15,177,20:00:00,07:00:00,"AURORA.TOY PDC, IL",,L904515,CHICAGO,42.0499,-88.0707,Exact
TOMASEK-CHICAGO,ILBE.AUR.TOY.7,TOY,Chicago Northside Toyota,Chicago,IL,60659,02:02:00,02:32:00,30,101,20:00:00,07:00:00,"AURORA.TOY PDC, IL",,L904508,CHICAGO,41.9915,-87.6898,Exact
TOMASEK-CHICAGO,ILBE.AUR.TOY.7,TOY,McGrath Lexus/Chicago,Chicago,IL,60642,02:48:00,03:28:00,40,185,20:00:00,07:00:00,"AURORA.TOY PDC, IL",,L904480,CHICAGO,41.9036,-87.6561,Exact
TOMASEK-CHICAGO,ILBE.AUR.TOY.7,TOY,Toyota of Lincoln Park,Chicago,IL,60642,03:35:00,04:05:00,30,77,20:00:00,07:00:00,"AURORA.TOY PDC, IL",,L904482,CHICAGO,41.9101,-87.651,Exact
TOMASEK-CHICAGO,ILBE.AUR.TOY.7,TOY,Toyota on Western,Chicago,IL,60636,04:26:00,04:56:00,30,63,02:00:00,08:00:00,"AURORA.TOY PDC, IL",,L904485,CHICAGO,41.7671,-87.6833,Exact
TOMASEK-CHICAGO,ILBE.AUR.TOY.7,TOY,Victory Toyota of Midtown,Chicago,IL,60641,01:16:00,01:46:00,30,91,20:00:00,07:00:00,"AURORA.TOY PDC, IL",,L904507,CHICAGO,41.9404,-87.7469,Exact
TOMASEK-CHICAGO,ILBE.AUR.TOY.SUN.1,TOY,East Madison Toyota,Madison,WI,53718,19:59:00,20:14:00,15,40,17:00:00,07:00:00,"AURORA.TOY PDC, IL",,SL904473,CHICAGO,43.14,-89.2898,Exact
TOMASEK-CHICAGO,ILBE.AUR.TOY.SUN.1,TOY,Hesser Toyota,Janesville,WI,53545,19:00:00,19:15:00,15,10,17:00:00,07:00:00,"AURORA.TOY PDC, IL",,SL904474,CHICAGO,42.7218,-89.0024,Exact
TOMASEK-CHICAGO,ILBE.AUR.TOY.SUN.1,TOY,Lexus of Madison,Middleton,WI,53562,21:13:00,21:28:00,15,15,17:00:00,07:00:00,"AURORA.TOY PDC, IL",,SL904470,CHICAGO,43.1116,-89.5197,Exact
TOMASEK-CHICAGO,ILBE.AUR.TOY.SUN.1,TOY,Pauly Toyota,Crystal Lake,IL,60014,17:40:00,17:55:00,15,19,17:00:00,07:00:00,"AURORA.TOY PDC, IL",,SL904518,CHICAGO,42.2124,-88.2864,Exact
TOMASEK-CHICAGO,ILBE.AUR.TOY.SUN.1,TOY,Smart Motors Toyota,Madison,WI,53719,20:41:00,20:56:00,15,57,17:00:00,07:00:00,"AURORA.TOY PDC, IL",,SL904472,CHICAGO,43.0515,-89.4817,Exact
TOMASEK-CHICAGO,ILBE.AUR.TOY.SUN.1,TOY,Toyota of Fox Lake,Fox Lake,IL,60020,23:13:00,23:28:00,15,24,17:00:00,07:00:00,"AURORA.TOY PDC, IL",,SL904519,CHICAGO,42.3919,-88.1818,Exact
TOMASEK-CHICAGO,ILBE.AUR.TOY.SUN.2,TOY,Andrew Toyota,Milwaukee,WI,53209,23:43:00,23:58:00,15,27,17:00:00,07:00:00,"AURORA.TOY PDC, IL",,SL904522,CHICAGO,43.1189,-87.9306,Exact
TOMASEK-CHICAGO,ILBE.AUR.TOY.SUN.2,TOY,Arlington Toyota,Palatine,IL,60074,18:11:00,18:26:00,15,48,17:00:00,07:00:00,"AURORA.TOY PDC, IL",,SL904511,CHICAGO,42.1479,-88.0313,Exact
TOMASEK-CHICAGO,ILBE.AUR.TOY.SUN.2,TOY,Classic Toyota,Waukegan,IL,60085,19:23:00,19:38:00,15,22,17:00:00,07:00:00,"AURORA.TOY PDC, IL",,SL904488,CHICAGO,42.3673,-87.8795,Exact
TOMASEK-CHICAGO,ILBE.AUR.TOY.SUN.2,TOY,Don Jacobs Toyota,Milwaukee,WI,53221,20:57:00,21:12:00,15,25,17:00:00,07:00:00,"AURORA.TOY PDC, IL",,SL904490,CHICAGO,42.9403,-87.9494,Exact
TOMASEK-CHICAGO,ILBE.AUR.TOY.SUN.2,TOY,Heiser Toyota,Milwaukee,WI,53224,23:12:00,23:27:00,15,14,17:00:00,07:00:00,"AURORA.TOY PDC, IL",,SL904494,CHICAGO,43.1435,-88.0543,Exact
TOMASEK-CHICAGO,ILBE.AUR.TOY.SUN.2,TOY,Lexus of Arlington,Arlington Heights,IL,60004,17:49:00,18:04:00,15,35,17:00:00,07:00:00,"AURORA.TOY PDC, IL",,SL904516,CHICAGO,42.1393,-88.0016,Exact
TOMASEK-CHICAGO,ILBE.AUR.TOY.SUN.2,TOY,Lexus of Brookfield,Brookfield,WI,53045,22:06:00,22:21:00,15,21,17:00:00,07:00:00,"AURORA.TOY PDC, IL",,SL904492,CHICAGO,43.0332,-88.1548,Exact
TOMASEK-CHICAGO,ILBE.AUR.TOY.SUN.2,TOY,Lexus of Milwaukee,Glendale,WI,53209,23:59:00,00:14:00,15,15,17:00:00,07:00:00,"AURORA.TOY PDC, IL",,SL904495,CHICAGO,43.1187,-87.9289,Exact
TOMASEK-CHICAGO,ILBE.AUR.TOY.SUN.2,TOY,Libertyville Toyota,Libertyville,IL,60048,18:48:00,19:03:00,15,32,17:00:00,07:00:00,"AURORA.TOY PDC, IL",,SL904520,CHICAGO,42.2649,-87.9494,Exact
TOMASEK-CHICAGO,ILBE.AUR.TOY.SUN.2,TOY,Toyota of Brookfield,Brookfield,WI,53045,22:37:00,22:52:00,15,53,17:00:00,07:00:00,"AURORA.TOY PDC, IL",,SL904493,CHICAGO,43.0861,-88.1689,Good
TOMASEK-CHICAGO,ILBE.AUR.TOY.SUN.2,TOY,Wilde Toyota,West Allis,WI,53227,21:31:00,21:46:00,15,76,17:00:00,07:00:00,"AURORA.TOY PDC, IL",,SL904491,CHICAGO,42.9847,-88.0474,Exact
TOMASEK-CHICAGO,ILBE.AUR.TOY.SUN.2,TOY,Zeigler Toyota of Racine,Mt Pleasant,WI,53177,20:11:00,20:26:00,15,8,17:00:00,07:00:00,"AURORA.TOY PDC, IL",,SL904489,CHICAGO,42.6938,-87.8738,Exact
TOMASEK-CHICAGO,ILBE.AUR.TOY.SUN.3,TOY,Continental Toyota,Hodgkins,IL,60525,20:19:00,20:34:00,15,91,17:00:00,07:00:00,"AURORA.TOY PDC, IL",,SL904498,CHICAGO,41.7674,-87.8676,Exact
TOMASEK-CHICAGO,ILBE.AUR.TOY.SUN.3,TOY,Gerald Toyota of Matteson,Matteson,IL,60443,22:24:00,22:39:00,15,20,17:00:00,07:00:00,"AURORA.TOY PDC, IL",,SL904501,CHICAGO,41.5047,-87.7466,Exact
TOMASEK-CHICAGO,ILBE.AUR.TOY.SUN.3,TOY,Lexus of Naperville,Naperville,IL,60540,00:14:00,00:29:00,15,0,17:00:00,07:00:00,"AURORA.TOY PDC, IL",,SL904496,CHICAGO,41.7633,-88.1954,Exact
TOMASEK-CHICAGO,ILBE.AUR.TOY.SUN.3,TOY,Lexus of Naperville,Naperville,IL,60540,17:22:00,17:37:00,15,25,17:00:00,07:00:00,"AURORA.TOY PDC, IL",,SL904496,CHICAGO,41.7633,-88.1954,Exact
TOMASEK-CHICAGO,ILBE.AUR.TOY.SUN.3,TOY,Lexus of Orland,Orland Park,IL,60462,21:49:00,22:04:00,15,24,17:00:00,07:00:00,"AURORA.TOY PDC, IL",,SL904500,CHICAGO,41.6019,-87.8203,Exact
TOMASEK-CHICAGO,ILBE.AUR.TOY.SUN.3,TOY,Lombard Toyota,Lombard,IL,60148,18:21:00,18:36:00,15,20,17:00:00,07:00:00,"AURORA.TOY PDC, IL",,SL904504,CHICAGO,41.8599,-88.02,Exact
TOMASEK-CHICAGO,ILBE.AUR.TOY.SUN.3,TOY,McGrath Lexus/Westmont,Westmont,IL,60559,19:29:00,19:44:00,15,40,17:00:00,07:00:00,"AURORA.TOY PDC, IL",,SL904478,CHICAGO,41.8104,-87.9622,Exact
TOMASEK-CHICAGO,ILBE.AUR.TOY.SUN.3,TOY,McGrath of Elmhurst,Elmhurst,IL,60126,18:54:00,19:09:00,15,22,17:00:00,07:00:00,"AURORA.TOY PDC, IL",,SL904506,CHICAGO,41.9184,-87.9528,Exact
TOMASEK-CHICAGO,ILBE.AUR.TOY.SUN.3,TOY,Oak Lawn Toyota,Oak Lawn,IL,60453,20:53:00,21:08:00,15,19,17:00:00,07:00:00,"AURORA.TOY PDC, IL",,SL904483,CHICAGO,41.7204,-87.7297,Exact
TOMASEK-CHICAGO,ILBE.AUR.TOY.SUN.3,TOY,Oakbrook Toyota in Westmont,Westmont,IL,60559,19:45:00,20:00:00,15,27,17:00:00,07:00:00,"AURORA.TOY PDC, IL",,SL904479,CHICAGO,41.8105,-87.9594,Exact
TOMASEK-CHICAGO,ILBE.AUR.TOY.SUN.3,TOY,Orland Toyota,Tinley Park,IL,60487,21:31:00,21:46:00,15,19,17:00:00,07:00:00,"AURORA.TOY PDC, IL",,SL904499,CHICAGO,41.6017,-87.8255,Exact
TOMASEK-CHICAGO,ILBE.AUR.TOY.SUN.3,TOY,Romeoville Toyota,Romeoville,IL,60446,23:12:00,23:27:00,15,16,17:00:00,07:00:00,"AURORA.TOY PDC, IL",,SL904503,CHICAGO,41.5986,-88.1229,Exact
TOMASEK-CHICAGO,ILBE.AUR.TOY.SUN.3,TOY,Toyota of Naperville,Naperville,IL,60540,17:43:00,17:58:00,15,41,17:00:00,07:00:00,"AURORA.TOY PDC, IL",,SL904497,CHICAGO,41.7732,-88.1864,Exact
TOMASEK-CHICAGO,ILBE.AUR.TOY.SUN.3,TOY,Toyota of Naperville,Naperville,IL,60540,23:53:00,00:08:00,15,0,17:00:00,07:00:00,"AURORA.TOY PDC, IL",,SL904497,CHICAGO,41.7732,-88.1864,Exact
TOMASEK-CHICAGO,ILBE.AUR.TOY.SUN.4,TOY,Bredemann Toyota,Park Ridge,IL,60068,19:37:00,19:52:00,15,23,17:00:00,07:00:00,"AURORA.TOY PDC, IL",,SL002606,CHICAGO,42.0394,-87.8426,Exact
TOMASEK-CHICAGO,ILBE.AUR.TOY.SUN.4,TOY,Chicago Northside Toyota,Chicago,IL,60659,22:13:00,22:28:00,15,28,17:00:00,07:00:00,"AURORA.TOY PDC, IL",,SL904508,CHICAGO,41.9915,-87.6898,Exact
TOMASEK-CHICAGO,ILBE.AUR.TOY.SUN.4,TOY,Elgin Toyota,Streamwood,IL,60107,17:58:00,18:13:00,15,37,17:00:00,07:00:00,"AURORA.TOY PDC, IL",,SL904514,CHICAGO,42.013,-88.2173,Exact
TOMASEK-CHICAGO,ILBE.AUR.TOY.SUN.4,TOY,Fields Lexus,Glenview,IL,60025,20:06:00,20:21:00,15,22,17:00:00,07:00:00,"AURORA.TOY PDC, IL",,SL904510,CHICAGO,42.0912,-87.7979,Exact
TOMASEK-CHICAGO,ILBE.AUR.TOY.SUN.4,TOY,Lexus of Highland Park,Highland Park,IL,60035,21:07:00,21:22:00,15,17,17:00:00,07:00:00,"AURORA.TOY PDC, IL",,SL904517,CHICAGO,42.2058,-87.8367,Exact
TOMASEK-CHICAGO,ILBE.AUR.TOY.SUN.4,TOY,McGrath Lexus/Chicago,Chicago,IL,60642,22:44:00,22:59:00,15,54,17:00:00,07:00:00,"AURORA.TOY PDC, IL",,SL904480,CHICAGO,41.9036,-87.6561,Exact
TOMASEK-CHICAGO,ILBE.AUR.TOY.SUN.4,TOY,Schaumburg Toyota,Schaumburg,IL,60194,18:33:00,18:53:00,20,125,17:00:00,07:00:00,"AURORA.TOY PDC, IL",,SL904471,CHICAGO,42.0483,-88.1021,Exact
TOMASEK-CHICAGO,ILBE.AUR.TOY.SUN.4,TOY,St. Charles Toyota,St. Charles,IL,60174,17:22:00,17:37:00,15,15,17:00:00,07:00:00,"AURORA.TOY PDC, IL",,SL904512,CHICAGO,41.9212,-88.2813,Exact
TOMASEK-CHICAGO,ILBE.AUR.TOY.SUN.4,TOY,Toyota of Lincoln Park,Chicago,IL,60642,23:06:00,23:21:00,15,19,17:00:00,07:00:00,"AURORA.TOY PDC, IL",,SL904482,CHICAGO,41.9101,-87.651,Exact
TOMASEK-CHICAGO,ILBE.AUR.TOY.SUN.4,TOY,Toyota of Lincolnwood,Lincolnwood,IL,60712,21:48:00,22:03:00,15,25,17:00:00,07:00:00,"AURORA.TOY PDC, IL",,SL904509,CHICAGO,42.0132,-87.7478,Exact
TOMASEK-CHICAGO,ILBE.AUR.TOY.SUN.4,TOY,Toyota on Edens,Northbrook,IL,60062,20:33:00,20:48:00,15,15,17:00:00,07:00:00,"AURORA.TOY PDC, IL",,SL904505,CHICAGO,42.1243,-87.7831,Exact
TOMASEK-CHICAGO,ILBE.AUR.TOY.SUN.4,TOY,Victory Toyota of Midtown,Chicago,IL,60641,23:35:00,23:50:00,15,27,17:00:00,07:00:00,"AURORA.TOY PDC, IL",,SL904507,CHICAGO,41.9404,-87.7469,Exact
TOMASEK-CHICAGO,ILBE.AUR.TOY.SUN.4,TOY,Woodfield Lexus,Schaumburg,IL,60173,19:00:00,19:15:00,15,46,17:00:00,07:00:00,"AURORA.TOY PDC, IL",,SL904515,CHICAGO,42.0499,-88.0707,Exact
TOMASEK-CHICAGO,ILBE.COL.GR DED,COL,COLONY - GRAND RAPIDS,Grand Rapids,MI,49548,23:21:00,23:36:00,15,224,22:00:00,06:00:00,"COUNTRYSIDE, IL",,L903038,COUNTRYSIDE,42.8841,-85.6799,Exact
TOMASEK-CHICAGO,ILBE.COL.MH DED,COL,COLONY - MADISON HEIGHTS,MADISON HEIGHTS,MI,48071-4150,05:00:00,05:15:00,15,224,05:00:00,10:00:00,"COUNTRYSIDE, IL",,L903039,COUNTRYSIDE,42.4794,-83.089,Level1
TOMASEK-CHICAGO,ILBE.FRD.1,AIT,APPLIED - LAPORTE,Laporte,IN,46350,06:16:00,06:31:00,15,120,01:30:00,08:00:00,"MINOOKA, IL",,L002707,FLORENCE,41.6075,-86.6873,Exact
TOMASEK-CHICAGO,ILBE.FRD.1,FRD,ART HILL FORD LINC,Merrillville,IN,46410,03:27:00,03:47:00,20,282,23:00:00,07:00:00,"MINOOKA, IL",,L903949,INDIANAPOLIS,41.4708,-87.3467,Exact
TOMASEK-CHICAGO,ILBE.FRD.1,FRD,AUTO PARK FORD,Laporte,IN,46350,06:37:00,06:47:00,10,56,02:30:00,08:00:00,"MINOOKA, IL",,L000237,INDIANAPOLIS,41.626,-86.6885,Exact
TOMASEK-CHICAGO,ILBE.FRD.1,FRD,BOSAK FORD,Chesterton,IN,46304,04:47:00,05:07:00,20,238,23:00:00,07:00:00,"MINOOKA, IL",,L903945,INDIANAPOLIS,41.6038,-87.1147,Exact
TOMASEK-CHICAGO,ILBE.FRD.1,FRD,CASTLE FORD LINCOLN,Michigan City,IN,46360,05:31:00,05:51:00,20,231,23:00:00,07:00:00,"MINOOKA, IL",,L903944,INDIANAPOLIS,41.6835,-86.8939,Exact
TOMASEK-CHICAGO,ILBE.FRD.1,FRD,PAUL HEURING MTRS IN,Hobart,IN,46342,04:07:00,04:27:00,20,236,23:00:00,07:00:00,"MINOOKA, IL",,L903951,INDIANAPOLIS,41.5491,-87.2407,Exact
TOMASEK-CHICAGO,ILBE.FRD.2,CNH,MCCANN INDUSTRIES,Bolingbrook,IL,60440,06:00:00,06:10:00,10,240,06:00:00,09:00:00,"MINOOKA, IL",,L001171,LEBANON,41.6898,-88.0596,Exact
TOMASEK-CHICAGO,ILBE.FRD.2,FRD,"MCCARTHY FORD, INC",Chicago,IL,60655,05:06:00,05:26:00,20,244,23:00:00,07:00:00,"MINOOKA, IL",,L903953,INDIANAPOLIS,41.6854,-87.7202,Exact
TOMASEK-CHICAGO,ILBE.FRD.2,FRD,NAPLETON FORD OAK LAWN,Oak Lawn,IL,60453,04:34:00,04:54:00,20,688,23:00:00,05:30:00,"MINOOKA, IL",,L903957,INDIANAPOLIS,41.7197,-87.7733,Exact
TOMASEK-CHICAGO,ILBE.FRD.2,FRD,ZEIGLER FORD,North Riverside,IL,60546,03:53:00,04:13:00,20,308,23:00:00,07:00:00,"MINOOKA, IL",,L903955,INDIANAPOLIS,41.852,-87.8044,Exact
TOMASEK-CHICAGO,ILBE.FRD.3,9FRD,FORD INDIANAPOLIS HVC,Plainfield,IN,46168,22:20:00,23:00:00,40,0,21:20:00,22:20:00,"MINOOKA, IL",,,INDIANAPOLIS,39.6834,-86.3489,Exact
TOMASEK-CHICAGO,ILBE.FRD.3,FRD,CURRIE MOTORS FORD,Valparaiso,IN,46385,01:27:00,01:47:00,20,287,23:00:00,07:00:00,"MINOOKA, IL",,L903954,INDIANAPOLIS,41.4617,-87.0854,Exact
TOMASEK-CHICAGO,ILBE.FRD.3,FRD,LAFAYETTE FORD,Lafayette,IN,47905,00:31:00,00:51:00,20,313,23:00:00,07:00:00,"MINOOKA, IL",,L903956,INDIANAPOLIS,40.3979,-86.8567,Exact
TOMASEK-CHICAGO,ILBE.FRD.3,FRD,WEBB FORD INC,Highland,IN,46322,02:19:00,02:39:00,20,992,23:00:00,05:00:00,"MINOOKA, IL",,L903952,INDIANAPOLIS,41.5358,-87.471,Exact
TOMASEK-CHICAGO,ILBE.FRD.3,HUB,INDY DOCK,Whitestown,IN,46075,23:35:00,23:45:00,10,0,16:00:00,08:00:00,"MINOOKA, IL",,,,39.982,-86.3824,Exact
TOMASEK-CHICAGO,ILBE.FRD.4,FRD,"BILL KAY FORD, INC",Midlothian,IL,60445,05:46:00,06:06:00,20,209,23:00:00,07:00:00,"MINOOKA, IL",,L903958,INDIANAPOLIS,41.6261,-87.7373,Exact
TOMASEK-CHICAGO,ILBE.FRD.4,FRD,CURRIE MTR FRANKFORT,Frankfort,IL,60423,02:33:00,02:53:00,20,278,23:00:00,07:00:00,"MINOOKA, IL",,L903946,INDIANAPOLIS,41.5065,-87.8433,Exact
TOMASEK-CHICAGO,ILBE.FRD.4,FRD,FORD OF HOMEWOOD,Homewood,IL,60430,06:22:00,06:42:00,20,288,23:00:00,07:00:00,"MINOOKA, IL",,L903959,INDIANAPOLIS,41.5565,-87.6957,Exact
TOMASEK-CHICAGO,ILBE.FRD.4,FRD,JOE RIZZA FORD LINC,Orland Park,IL,60462,05:12:00,05:32:00,20,303,23:00:00,06:00:00,"MINOOKA, IL",,L903947,INDIANAPOLIS,41.602,-87.816,Exact
TOMASEK-CHICAGO,ILBE.FRD.4,FRD,SUTTON FORD,Matteson,IL,60443,03:06:00,03:26:00,20,938,23:00:00,05:30:00,"MINOOKA, IL",,L903948,INDIANAPOLIS,41.503,-87.7516,Exact
TOMASEK-CHICAGO,ILBE.FRD.4,RIV,RIVIAN - CHICAGO,Chicago,IL,60612,07:18:00,07:45:00,27,560,02:00:00,12:00:00,"MINOOKA, IL",,L905646,LOUISVILLE,41.8858,-87.678,Exact
TOMASEK-CHICAGO,ILBE.FRD.INDY,9FRD,FORD INDIANAPOLIS HVC,Plainfield,IN,46168,22:20:00,23:00:00,40,0,21:20:00,21:20:00,"MINOOKA, IL",,,INDIANAPOLIS,39.6834,-86.3489,Exact
TOMASEK-CHICAGO,ILBE.FRD.INDY,HUB,INDY DOCK,Whitestown,IN,46075,21:24:00,21:44:00,20,0,16:00:00,08:00:00,"MINOOKA, IL",,,,39.982,-86.3824,Exact
TOMASEK-CHICAGO,ILBE.HK.DES,HUB,DES MOINES DOCK,Des Moines,IA,50316,17:02:00,17:32:00,30,0,15:00:00,08:00:00,"AURORA.HK PDC, IL",,HUB-DES MOINES,,41.6078,-93.5959,Exact
TOMASEK-CHICAGO,ILBE.HK.MADISON IL,HUB,MADISON DOCK,Madison,IL,62060,16:50:00,17:20:00,30,0,16:30:00,17:30:00,"AURORA.HK PDC, IL",,HUB-MADISON,,38.6763,-90.1556,Exact
TOMASEK-CHICAGO,ILBE.HK.STP,HUB,SAINT PAUL DOCK,Saint Paul,MN,55117,20:27:00,20:57:00,30,0,17:00:00,08:00:00,"AURORA.HK PDC, IL",,HUB-SAINT PAUL,,44.9838,-93.0916,Exact
TOMASEK-CHICAGO,ILBE.IADE.AUR.DES,9HYU,HK CHICAGO PDC,Aurora,IL,60506,04:41:00,04:56:00,15,0,00:12:00,08:00:00,"MONTGOMERY, IL",,9HK-CHICAGO,CHICAGO,41.7921,-88.3579,Exact
TOMASEK-CHICAGO,ILBE.IADE.AUR.DES,9HYU,HK CHICAGO PDC,Aurora,IL,60506,16:45:00,17:15:00,30,0,16:45:00,16:45:00,"MONTGOMERY, IL",,9HK-CHICAGO,CHICAGO,41.7921,-88.3579,Exact
TOMASEK-CHICAGO,ILBE.IADE.AUR.DES,9TOY,TOY CHICAGO PDC,Aurora,IL,60506,17:20:00,18:01:00,41,0,17:05:00,06:00:00,"MONTGOMERY, IL",,9TOY-CHICAGO,CHICAGO,41.7893,-88.3694,Exact
TOMASEK-CHICAGO,ILBE.IADE.AUR.DES,HUB,DES MOINES DOCK,Des Moines,IA,50316,22:33:00,23:33:00,60,0,14:00:00,06:00:00,"MONTGOMERY, IL",,HUB-DES MOINES,,41.6078,-93.5959,Exact
TOMASEK-CHICAGO,ILBE.IADE.AUR.DES,HUB,ROCK ISLAND DOCK,Rock Island,IL,61201,02:16:00,02:31:00,15,0,14:00:00,06:00:00,"MONTGOMERY, IL",,HUB-ROCK ISLAND,,41.484,-90.5911,Exact
TOMASEK-CHICAGO,ILBE.IADE.AUR.DES.HK LH,9HYU,HK CHICAGO PDC,Aurora,IL,60506,03:20:00,03:35:00,15,0,16:30:00,06:00:00,"MONTGOMERY, IL",,9HK-CHICAGO,CHICAGO,41.7921,-88.3579,Exact
TOMASEK-CHICAGO,ILBE.IADE.AUR.DES.HK LH,9HYU,HK CHICAGO PDC,Aurora,IL,60506,16:45:00,17:15:00,30,0,16:45:00,16:45:00,"MONTGOMERY, IL",,9HK-CHICAGO,CHICAGO,41.7921,-88.3579,Exact
TOMASEK-CHICAGO,ILBE.IADE.AUR.DES.HK LH,HUB,DES MOINES DOCK,Des Moines,IA,50316,21:47:00,22:47:00,60,0,21:00:00,06:00:00,"MONTGOMERY, IL",,HUB-DES MOINES,,41.6078,-93.5959,Exact
TOMASEK-CHICAGO,ILBE.IADE.JOL.DES,HUB,DES MOINES DOCK,Des Moines,IA,50316,23:10:00,23:40:00,30,0,19:00:00,08:00:00,"JOLIET, IL",,HUB-DES MOINES,,41.6078,-93.5959,Exact
TOMASEK-CHICAGO,ILBE.IADE.JOL.DES,HUB,MINOOKA DOCK,Minooka,IL,60447,05:02:00,05:17:00,15,0,18:00:00,08:00:00,"JOLIET, IL",,HUB-MINOOKA,,41.4457,-88.2843,Exact
TOMASEK-CHICAGO,ILBE.IADE.JOL.DES,HUB,ROCK ISLAND DOCK,Rock Island,IL,61201,02:23:00,02:53:00,30,0,14:00:00,06:00:00,"JOLIET, IL",,HUB-ROCK ISLAND,,41.484,-90.5911,Exact
TOMASEK-CHICAGO,ILBE.ILMA.AUR.MAD,9HYU,HK CHICAGO PDC,Aurora,IL,60506,03:20:00,03:35:00,15,0,16:30:00,06:00:00,"MONTGOMERY, IL",,9HK-CHICAGO,CHICAGO,41.7921,-88.3579,Exact
TOMASEK-CHICAGO,ILBE.ILMA.AUR.MAD,9HYU,HK CHICAGO PDC,Aurora,IL,60506,16:30:00,17:00:00,30,0,16:30:00,16:30:00,"MONTGOMERY, IL",,9HK-CHICAGO,CHICAGO,41.7921,-88.3579,Exact
TOMASEK-CHICAGO,ILBE.ILMA.AUR.MAD,HUB,MADISON DOCK,Madison,IL,62060,21:21:00,22:21:00,60,0,12:00:00,00:30:00,"MONTGOMERY, IL",,HUB-MADISON,,38.6763,-90.1556,Exact
TOMASEK-CHICAGO,ILBE.ILMA.AUR.MAD,HUB,MINOOKA DOCK,Minooka,IL,60447,02:21:00,02:36:00,15,0,18:00:00,05:00:00,"MONTGOMERY, IL",,HUB-MINOOKA,,41.4457,-88.2843,Exact
TOMASEK-CHICAGO,ILBE.ILMA.AUR.MAD.HK LH,9HYU,HK CHICAGO PDC,Aurora,IL,60506,02:42:00,02:57:00,15,0,16:30:00,06:00:00,"MONTGOMERY, IL",,9HK-CHICAGO,CHICAGO,41.7921,-88.3579,Exact
TOMASEK-CHICAGO,ILBE.ILMA.AUR.MAD.HK LH,9HYU,HK CHICAGO PDC,Aurora,IL,60506,16:30:00,17:00:00,30,0,16:30:00,16:30:00,"MONTGOMERY, IL",,9HK-CHICAGO,CHICAGO,41.7921,-88.3579,Exact
TOMASEK-CHICAGO,ILBE.ILMA.AUR.MAD.HK LH,HUB,MADISON DOCK,Madison,IL,62060,21:21:00,22:21:00,60,0,20:00:00,00:30:00,"MONTGOMERY, IL",,HUB-MADISON,,38.6763,-90.1556,Exact
TOMASEK-CHICAGO,ILBE.JOL SH-1,9HYU,HK CHICAGO PDC,Aurora,IL,60506,16:43:00,16:58:00,15,0,16:30:00,06:00:00,"MINOOKA, IL",,9HK-CHICAGO,CHICAGO,41.7921,-88.3579,Exact
TOMASEK-CHICAGO,ILBE.JOL SH-1,9VOL,VOL JOLIET PDC,Joliet,IL,60431,18:45:00,19:29:00,44,0,18:45:00,20:00:00,"MINOOKA, IL",,9VOL-JOLIET,JOLIET,41.4906,-88.1751,Exact
TOMASEK-CHICAGO,ILBE.JOL SH-1,9WWG,WWG MINOOKA PDC,Minooka,IL,60447,20:09:00,20:24:00,15,0,18:00:00,07:00:00,"MINOOKA, IL",,9WWG-MINOOKA,MINOOKA,41.457,-88.2779,MANUAL
TOMASEK-CHICAGO,ILBE.JOL SH-1,MEET,HEBRON MEET,Hebron,IN,46341,22:50:00,23:30:00,40,0,22:50:00,23:00:00,"MINOOKA, IL",,MEET-HEBRON,,41.2909,-87.296,Exact
TOMASEK-CHICAGO,ILBE.JOL SH-2,9HYU,HK CHICAGO PDC,Aurora,IL,60506,17:09:00,17:24:00,15,0,17:00:00,06:00:00,"MINOOKA, IL",,9HK-CHICAGO,CHICAGO,41.7921,-88.3579,Exact
TOMASEK-CHICAGO,ILBE.JOL SH-2,9TOY,TOY CHICAGO PDC,Aurora,IL,60506,17:30:00,17:45:00,15,0,17:30:00,08:00:00,"MINOOKA, IL",,9TOY-CHICAGO,CHICAGO,41.7893,-88.3694,Exact
TOMASEK-CHICAGO,ILBE.JOL SH-2,9VOL,VOL JOLIET PDC,Joliet,IL,60431,18:56:00,20:36:00,100,0,18:00:00,23:00:00,"MINOOKA, IL",,9VOL-JOLIET,JOLIET,41.4906,-88.1751,Exact
TOMASEK-CHICAGO,ILBE.JOL SH-2,9WWG,WWG MINOOKA PDC,Minooka,IL,60447,01:12:00,01:19:00,7,0,20:00:00,08:00:00,"MINOOKA, IL",,9WWG-MINOOKA,MINOOKA,41.457,-88.2779,MANUAL
TOMASEK-CHICAGO,ILBE.JOL SH-2,9WWG,WWG MINOOKA PDC,Minooka,IL,60447,21:11:00,21:41:00,30,0,20:00:00,22:00:00,"MINOOKA, IL",,9WWG-MINOOKA,MINOOKA,41.457,-88.2779,MANUAL
TOMASEK-CHICAGO,ILBE.JOL SH-2,HUB,MINOOKA DOCK,Minooka,IL,60447,18:27:00,18:37:00,10,0,16:00:00,02:00:00,"MINOOKA, IL",,HUB-MINOOKA,,41.4457,-88.2843,Exact
TOMASEK-CHICAGO,ILBE.JOL SH-2,HUB,MINOOKA DOCK,Minooka,IL,60447,20:54:00,21:04:00,10,0,17:00:00,02:00:00,"MINOOKA, IL",,HUB-MINOOKA,,41.4457,-88.2843,Exact
TOMASEK-CHICAGO,ILBE.JOL SH-2,HUB,MINOOKA DOCK,Minooka,IL,60447,21:48:00,22:48:00,60,0,17:00:00,02:00:00,"MINOOKA, IL",,HUB-MINOOKA,,41.4457,-88.2843,Exact
TOMASEK-CHICAGO,ILBE.JOL SH-2,VOL,M & K TRUCK CENTERS,Des Plaines,IL,60018,23:45:00,00:15:00,30,1008,21:30:00,08:00:00,"MINOOKA, IL",,L003208,JOLIET,42.0227,-87.943,Exact
TOMASEK-CHICAGO,ILBE.JOL.IND,HUB,INDIANAPOLIS DOCK,Whitestown,IN,46075,22:39:00,23:59:00,80,0,19:00:00,08:00:00,"JOLIET, IL",,HUB-INDIANAPOLIS,,39.9821,-86.3825,Exact
TOMASEK-CHICAGO,ILBE.JOL.IND,HUB,MINOOKA DOCK,Minooka,IL,60447,01:46:00,02:01:00,15,0,18:00:00,08:00:00,"JOLIET, IL",,HUB-MINOOKA,,41.4457,-88.2843,Exact
TOMASEK-CHICAGO,ILBE.JOL.LAN,HUB,LANSING DOCK,Lansing,MI,48906,23:54:00,00:54:00,60,0,19:00:00,08:00:00,"JOLIET, IL",,HUB-LANSING,,42.7778,-84.6333,Exact
TOMASEK-CHICAGO,ILBE.JOL.MAD,HUB,MADISON DOCK,Madison,IL,62060,23:03:00,23:33:00,30,0,12:00:00,00:30:00,"JOLIET, IL",,HUB-MADISON,,38.6763,-90.1556,Exact
TOMASEK-CHICAGO,ILBE.JOL.MAD,HUB,MINOOKA DOCK,Minooka,IL,60447,18:48:00,19:03:00,15,0,18:00:00,05:00:00,"JOLIET, IL",,HUB-MINOOKA,,41.4457,-88.2843,Exact
TOMASEK-CHICAGO,ILBE.JOL.MON,9TOY,TOY CHICAGO PDC,Aurora,IL,60506,19:39:00,19:59:00,20,0,17:05:00,06:00:00,"JOLIET, IL",,9TOY-CHICAGO,CHICAGO,41.7893,-88.3694,Exact
TOMASEK-CHICAGO,ILBE.JOL.MON,HUB,MADISON WI DOCK,Deforest,WI,53532,22:16:00,22:36:00,20,0,19:00:00,08:00:00,"JOLIET, IL",,HUB-MADISON,,43.2576,-89.3296,Exact
TOMASEK-CHICAGO,ILBE.JOL.STP.MEN,DRC,MENARDS,Plano,IL,60545,09:22:00,09:52:00,30,0,22:00:00,10:00:00,"JOLIET, IL",,L903962,DRC LW,41.6845,-88.4887,Exact
TOMASEK-CHICAGO,ILBE.JOL.STP.MEN,DRC,MENARDS,Eau Claire,WI,54703,03:55:00,04:25:00,30,0,22:00:00,08:00:00,"JOLIET, IL",,L903961,DRC LW,44.8474,-91.5896,Exact
TOMASEK-CHICAGO,ILBE.JOL.STP.MEN,HUB,MENOMONIE DOCK,Menomonie,WI,54751,03:01:00,03:31:00,30,0,18:00:00,14:00:00,"JOLIET, IL",,HUB-MENOMONIE,,44.9156,-91.8561,Exact
TOMASEK-CHICAGO,ILBE.JOL.STP.MEN,HUB,MINOOKA DOCK,Minooka,IL,60447,18:18:00,19:00:00,42,0,18:00:00,05:00:00,"JOLIET, IL",,HUB-MINOOKA,,41.4457,-88.2843,Exact
TOMASEK-CHICAGO,ILBE.JOL.STP.MEN,HUB,SAINT PAUL DOCK,Saint Paul,MN,55117,01:22:00,01:52:00,30,0,18:00:00,14:00:00,"JOLIET, IL",,HUB-SAINT PAUL,,44.9838,-93.0916,Exact
TOMASEK-CHICAGO,ILBE.JOL.TOL,HUB,MINOOKA DOCK,Minooka,IL,60447,03:37:00,03:52:00,15,0,19:00:00,05:00:00,"JOLIET, IL",,HUB-MINOOKA,,41.4457,-88.2843,Exact
TOMASEK-CHICAGO,ILBE.JOL.TOL,HUB,MINOOKA DOCK,Minooka,IL,60447,18:33:00,19:00:00,27,0,18:00:00,08:00:00,"JOLIET, IL",,HUB-MINOOKA,,41.4457,-88.2843,Exact
TOMASEK-CHICAGO,ILBE.JOL.TOL,HUB,TOLEDO DOCK,Toledo,OH,43615,00:03:00,00:33:00,30,0,20:30:00,01:00:00,"JOLIET, IL",,HUB-TOLEDO,,41.6328,-83.6278,Exact
TOMASEK-CHICAGO,ILBE.MILA.AUR.LAN,9HYU,HK CHICAGO PDC,Aurora,IL,60506,02:30:00,02:45:00,15,0,16:30:00,06:00:00,"MONTGOMERY, IL",,9HK-CHICAGO,CHICAGO,41.7921,-88.3579,Exact
TOMASEK-CHICAGO,ILBE.MILA.AUR.LAN,9HYU,HK CHICAGO PDC,Aurora,IL,60506,16:30:00,17:00:00,30,0,16:30:00,16:30:00,"MONTGOMERY, IL",,9HK-CHICAGO,CHICAGO,41.7921,-88.3579,Exact
TOMASEK-CHICAGO,ILBE.MILA.AUR.LAN,9TOY,TOY CHICAGO PDC,Aurora,IL,60506,17:05:00,17:35:00,30,0,17:05:00,06:00:00,"MONTGOMERY, IL",,9TOY-CHICAGO,CHICAGO,41.7893,-88.3694,Exact
TOMASEK-CHICAGO,ILBE.MILA.AUR.LAN,HUB,LANSING DOCK,Lansing,MI,48906,22:32:00,23:32:00,60,0,14:00:00,06:00:00,"MONTGOMERY, IL",,HUB-LANSING,,42.7778,-84.6333,Exact
TOMASEK-CHICAGO,ILBE.MILA.AUR.LAN TOY,HUB,LANSING DOCK,Lansing,MI,48906,21:57:00,22:57:00,60,0,14:00:00,06:00:00,"AURORA.TOY PDC, IL",,HUB-LANSING,,42.7778,-84.6333,Exact
TOMASEK-CHICAGO,ILBE.MIN DRE DSO.1,DRE,AHW LLC,Libertyville,IL,60048,07:39:00,07:55:00,16,69,22:00:00,08:00:00,"MINOOKA, IL",,L001586,MILAN MW,42.2815,-87.9345,Exact
TOMASEK-CHICAGO,ILBE.MIN DRE DSO.1,DRE,AHW LLC,HAMPSHIRE,IL,60140-8858,05:03:00,05:28:00,25,522,22:00:00,08:00:00,"MINOOKA, IL",,L001573,MILAN MW,42.0808,-88.4526,MANUAL
TOMASEK-CHICAGO,ILBE.MIN DRE DSO.1,DRE,AHW LLC,WAUCONDA,IL,60084-3127,07:00:00,07:16:00,16,100,07:00:00,09:00:00,"MINOOKA, IL",,L001634,MILAN MW,42.2939,-88.1621,Exact
TOMASEK-CHICAGO,ILBE.MIN DRE DSO.1,DRE,AHW LLC,ELBURN,IL,60119-9135,04:23:00,04:39:00,16,84,22:00:00,08:00:00,"MINOOKA, IL",,L001562,MILAN MW,41.8855,-88.4723,MANUAL
TOMASEK-CHICAGO,ILBE.MIN DRE DSO.1,DRE,Revels Turf,ELGIN,IL,60123-9354,05:51:00,06:07:00,16,90,22:00:00,08:00:00,"MINOOKA, IL",,L001574,MILAN MW,42.0731,-88.2789,MANUAL
TOMASEK-CHICAGO,ILBE.MIN DRE DSO.1,DRE,WEST SIDE TRACTOR,WAUCONDA,IL,60084-9751,06:37:00,06:52:00,15,89,22:00:00,08:00:00,"MINOOKA, IL",,L903164,MILAN MW,42.2848,-88.1559,MANUAL
TOMASEK-CHICAGO,ILBE.MIN DRE DSO.1,DRE,WEST SIDE TRACTOR,LISLE,IL,60532-1677,03:28:00,03:47:00,19,142,22:00:00,08:00:00,"MINOOKA, IL",,L002550,MILAN MW,41.7967,-88.1162,MANUAL
TOMASEK-CHICAGO,ILBE.MIN DRE DSO.2,DRE,AHW LLC,Manteno,IL,60950,04:08:00,04:27:00,19,250,22:00:00,08:00:00,"MINOOKA, IL",,L001589,MILAN MW,41.2483,-87.8566,Exact
TOMASEK-CHICAGO,ILBE.MIN DRE DSO.2,DRE,SHOREWOOD HOME & AUTO,Shorewood,IL,60404,23:49:00,00:05:00,16,105,22:00:00,08:00:00,"MINOOKA, IL",,L001619,MILAN MW,41.5214,-88.211,Exact
TOMASEK-CHICAGO,ILBE.MIN DRE DSO.2,DRE,SHOREWOOD HOME & AUTO,Homer Glen,IL,60491,02:29:00,02:45:00,16,109,22:00:00,08:00:00,"MINOOKA, IL",,L001577,MILAN MW,41.5994,-87.9511,Exact
TOMASEK-CHICAGO,ILBE.MIN DRE DSO.2,DRE,WEST SIDE TRACTOR,South Holland,IL,60473,03:11:00,03:29:00,18,118,22:00:00,08:00:00,"MINOOKA, IL",,L903163,MILAN MW,41.6009,-87.6212,Exact
TOMASEK-CHICAGO,ILBE.MIN DRE DSO.2,DRE,WEST SIDE TRACTOR,Joliet,IL,60436,00:21:00,00:36:00,15,77,22:00:00,08:00:00,"MINOOKA, IL",,L903159,MILAN MW,41.5103,-88.1356,Exact
TOMASEK-CHICAGO,ILBE.MIN DRE DSO.2,VOL,M & K TRUCK SALES,Summit Argo,IL,60501,01:16:00,02:01:00,45,1008,21:30:00,08:00:00,"MINOOKA, IL",,L003196,JOLIET,41.7881,-87.8139,Exact
TOMASEK-CHICAGO,ILBE.MIN ST.10,CMN,CUMMINS OAK CREEK,Oak Creek,WI,53154,05:13:00,05:28:00,15,224,22:00:00,08:00:00,"MINOOKA, IL",,L002660,INDIANAPOLIS,42.8724,-87.9252,Exact
TOMASEK-CHICAGO,ILBE.MIN ST.10,CNH,JOHNSON TRACTOR INC,Harvard,IL,60033,08:00:00,08:09:00,9,56,02:30:00,09:00:00,"MINOOKA, IL",,L902472,LEBANON,42.4584,-88.6008,Exact
TOMASEK-CHICAGO,ILBE.MIN ST.10,CNH,"MARTIN IMPLEMENT SALES, INC.",South Elgin,IL,60177,08:59:00,09:09:00,10,28,07:00:00,10:00:00,"MINOOKA, IL",,L001222,LEBANON,41.9843,-88.326,Exact
TOMASEK-CHICAGO,ILBE.MIN ST.10,CNH,OTTER SALES & SERVICE INC,Burlington,WI,53105,06:17:00,06:27:00,10,28,02:30:00,08:00:00,"MINOOKA, IL",,L001460,LEBANON,42.6947,-88.2642,Exact
TOMASEK-CHICAGO,ILBE.MIN ST.10,CNH,TRIEBOLD IMPLT INC,Whitewater,WI,53190,07:08:00,07:23:00,15,56,02:30:00,08:00:00,"MINOOKA, IL",,L001537,LEBANON,42.8168,-88.7277,Exact
TOMASEK-CHICAGO,ILBE.MIN ST.10,DRE,BROOKS TRACTOR,Mount Pleasant,WI,53177,04:13:00,04:20:00,7,28,21:30:00,08:00:00,"MINOOKA, IL",,L002965,MILAN LW,42.7154,-87.9532,MANUAL
TOMASEK-CHICAGO,ILBE.MIN ST.10,DRE,ESCH-ECONOMY INC,Oak Creek,WI,53154,05:38:00,05:43:00,5,14,21:30:00,10:00:00,"MINOOKA, IL",,L001922,MILAN LW,42.9008,-87.9503,Exact
TOMASEK-CHICAGO,ILBE.MIN ST.10,KUB,JOHNSON TRACTOR INC,Harvard,IL,60033,08:09:00,08:10:00,1,56,02:30:00,09:00:00,"MINOOKA, IL",,L902758,EDGERTON,42.4584,-88.6008,Exact
TOMASEK-CHICAGO,ILBE.MIN ST.10,VOL,KRIETE TRUCK CENTER,Franksville,WI,53126,04:29:00,04:54:00,25,392,21:30:00,08:00:00,"MINOOKA, IL",,L003213,JOLIET,42.7552,-87.9548,Exact
TOMASEK-CHICAGO,ILBE.MIN ST.11,AGCO,AC MCCARTNEY FARM EQUIPMENT,Durand,IL,61024,07:33:00,07:43:00,10,15,20:30:00,09:00:00,"MINOOKA, IL",,L002161,BATAVIA,42.4189,-89.3301,Exact
TOMASEK-CHICAGO,ILBE.MIN ST.11,AIT,APPLIED - ROCKFORD,Machesney Park,IL,61115,04:19:00,04:35:00,16,120,01:30:00,08:00:00,"MINOOKA, IL",,L002706,FLORENCE,42.3745,-89.024,Exact
TOMASEK-CHICAGO,ILBE.MIN ST.11,CNH,"MILLER-BRADFORD & RISBERG, INC",Rockford,IL,61109,06:26:00,06:33:00,7,84,02:30:00,08:00:00,"MINOOKA, IL",,L001127,LEBANON,42.217,-89.0723,Exact
TOMASEK-CHICAGO,ILBE.MIN ST.11,CNH,PEABUDYS NORTH,Pecatonica,IL,61063,07:03:00,07:10:00,7,84,02:30:00,08:00:00,"MINOOKA, IL",,L001205,LEBANON,42.247,-89.3582,Exact
TOMASEK-CHICAGO,ILBE.MIN ST.11,HYU,HYUNDAI OF PERRYVILLE,Rockford,IL,61107,05:25:00,05:32:00,7,112,19:30:00,08:00:00,"MINOOKA, IL",,L000659,CHICAGO,42.2722,-88.98,Exact
TOMASEK-CHICAGO,ILBE.MIN ST.11,KIA,ROCK RIVER KIA,Rockford,IL,61107,05:41:00,05:48:00,7,112,19:30:00,08:00:00,"MINOOKA, IL",,L000486,CHICAGO,42.2669,-89.029,Exact
TOMASEK-CHICAGO,ILBE.MIN ST.11,VOL,CENTRAL ILLINOIS TRUCKS,Loves Park,IL,61111,04:49:00,05:14:00,25,480,21:30:00,08:00:00,"MINOOKA, IL",,L003202,JOLIET,42.323,-88.9699,Exact
TOMASEK-CHICAGO,ILBE.MIN ST.11,WES,WESCO ROCKFORD,Rockford,IL,61109,05:57:00,06:12:00,15,120,22:30:00,08:00:00,"MINOOKA, IL",,L201943,CAROL STREAM,42.2347,-89.0125,Exact
TOMASEK-CHICAGO,ILBE.MIN ST.12,CNH,BIRKEYS FARM STORE INC,Polo,IL,61064,06:28:00,06:35:00,7,84,02:30:00,08:00:00,"MINOOKA, IL",,L001207,LEBANON,41.9765,-89.5792,Exact
TOMASEK-CHICAGO,ILBE.MIN ST.12,CNH,JOHNSON TRACTOR,Amboy,IL,61310,04:11:00,04:15:00,4,56,02:30:00,08:00:00,"MINOOKA, IL",,L001158,LEBANON,41.7215,-89.3322,Exact
TOMASEK-CHICAGO,ILBE.MIN ST.12,CNH,PEABUDY'S INC.,Sterling,IL,61081,05:17:00,05:24:00,7,84,02:30:00,08:00:00,"MINOOKA, IL",,L001224,LEBANON,41.8137,-89.6472,Exact
TOMASEK-CHICAGO,ILBE.MIN ST.12,DRE,"WILCO RENTAL, INC.",Sterling,IL,61081,05:36:00,05:43:00,7,84,22:15:00,09:00:00,"MINOOKA, IL",,L001624,MILAN LW,41.8058,-89.6987,Exact
TOMASEK-CHICAGO,ILBE.MIN ST.12,FRD,DIXON FORD LINCOLN MERCURY,Dixon,IL,61021,04:55:00,05:02:00,7,84,02:30:00,10:00:00,"MINOOKA, IL",,L000253,INDIANAPOLIS,41.831,-89.5366,MANUAL
TOMASEK-CHICAGO,ILBE.MIN ST.12,FRD,KUNES COUNTRY AUTO,Mount Carroll,IL,61053,07:10:00,07:17:00,7,84,02:30:00,10:00:00,"MINOOKA, IL",,L000244,INDIANAPOLIS,42.0838,-89.9834,Exact
TOMASEK-CHICAGO,ILBE.MIN ST.12,FRD,KUNES COUNTY LINCOLN OF STERLING,Sterling,IL,61081,05:47:00,05:54:00,7,84,02:30:00,10:00:00,"MINOOKA, IL",,L000263,INDIANAPOLIS,41.8154,-89.6985,Exact
TOMASEK-CHICAGO,ILBE.MIN ST.12,FRD,MENDOTA FORD INC,Mendota,IL,61342,03:34:00,03:44:00,10,84,02:30:00,08:00:00,"MINOOKA, IL",,L903170,INDIANAPOLIS,41.5328,-89.123,Exact
TOMASEK-CHICAGO,ILBE.MIN ST.12,KUB,JOHNSON TRACTOR,Amboy,IL,61310,04:15:00,04:16:00,1,56,02:30:00,08:00:00,"MINOOKA, IL",,L905459,EDGERTON,41.7215,-89.3322,Exact
TOMASEK-CHICAGO,ILBE.MIN ST.12,TOY,KEN NELSON TOYOTA,Dixon,IL,61021,04:39:00,04:44:00,5,112,22:30:00,08:00:00,"MINOOKA, IL",,L000335,CHICAGO,41.8342,-89.4785,Exact
TOMASEK-CHICAGO,ILBE.MIN ST.13,CNH,JOHNSON TRACTOR INC.,Rochelle,IL,61068,06:00:00,06:06:00,6,84,06:00:00,08:00:00,"MINOOKA, IL",@230,L001217,LEBANON,42.003,-89.1061,Exact
TOMASEK-CHICAGO,ILBE.MIN ST.13,CNH,R-EQUIPMENT CO. LLC,Sycamore,IL,60178,04:57:00,05:04:00,7,84,02:30:00,08:00:00,"MINOOKA, IL",@230,L002456,LEBANON,42.0017,-88.7769,Exact
TOMASEK-CHICAGO,ILBE.MIN ST.13,FRD,PRESCOTT BROTERS FORD,Rochelle,IL,61068,05:34:00,05:41:00,7,35,02:30:00,10:00:00,"MINOOKA, IL",,L000254,INDIANAPOLIS,41.9138,-89.0686,Exact
TOMASEK-CHICAGO,ILBE.MIN ST.13,HYU,PHILLIPS HYUNDAI OF BRADLEY,Bourbonnais,IL,60914,00:25:00,00:37:00,12,35,19:30:00,08:00:00,"MINOOKA, IL",,L000624,CHICAGO,41.1661,-87.8496,Exact
TOMASEK-CHICAGO,ILBE.MIN ST.13,HYU,SYCAMORE HUYNDAI,Sycamore,IL,60178,04:38:00,04:45:00,7,15,19:30:00,08:00:00,"MINOOKA, IL",,L000660,CHICAGO,41.9798,-88.7101,Exact
TOMASEK-CHICAGO,ILBE.MIN ST.13,KIA,KIA OF BRADLEY,Bourbonnais,IL,60914,00:17:00,00:24:00,7,65,19:30:00,08:00:00,"MINOOKA, IL",,L000480,CHICAGO,41.1649,-87.8476,MANUAL
TOMASEK-CHICAGO,ILBE.MIN ST.13,KUB,JOHNSON TRACTOR INC.,Rochelle,IL,61068,06:06:00,06:07:00,1,15,06:00:00,08:00:00,"MINOOKA, IL",,L902761,EDGERTON,42.003,-89.1061,Exact
TOMASEK-CHICAGO,ILBE.MIN ST.13,VOL,LA BEAU BROTHERS,Kankakee,IL,60901,00:51:00,01:01:00,10,112,21:30:00,08:00:00,"MINOOKA, IL",,L003195,JOLIET,41.1189,-87.8313,Exact
TOMASEK-CHICAGO,ILBE.MIN ST.14,CNH,BIRKEY'S FARM STORE (CASE/NH),Henry,IL,61537,07:26:00,07:41:00,15,224,00:30:00,08:00:00,"MINOOKA, IL",,L001183,LEBANON,41.1115,-89.3732,Exact
TOMASEK-CHICAGO,ILBE.MIN ST.14,CNH,STOLLER INTERNATIONAL,Ottawa,IL,61350,04:01:00,04:08:00,7,65,02:30:00,08:00:00,"MINOOKA, IL",@230,L001204,LEBANON,41.3967,-88.8341,Exact
TOMASEK-CHICAGO,ILBE.MIN ST.14,DRE,MARTIN EQUIPMENT,Peru,IL,61354,05:19:00,05:34:00,15,0,00:01:00,08:00:00,"MINOOKA, IL",,L001610,MILAN MW,41.3671,-89.1464,Exact
TOMASEK-CHICAGO,ILBE.MIN ST.14,FRD,AL CIONI FORD,Granville,IL,61326,06:45:00,06:57:00,12,28,23:45:00,08:00:00,"MINOOKA, IL",,L000277,INDIANAPOLIS,41.2585,-89.2277,Exact
TOMASEK-CHICAGO,ILBE.MIN ST.14,FRD,Spring Valley Ford,Spring Valley,IL,61362,06:20:00,06:27:00,7,28,23:45:00,08:00:00,"MINOOKA, IL",,L000257,INDIANAPOLIS,41.3417,-89.2196,Exact
TOMASEK-CHICAGO,ILBE.MIN ST.14,HYU,SCHIMMER HYUNDAI,Peru,IL,61354,04:36:00,04:46:00,10,65,19:30:00,08:00:00,"MINOOKA, IL",,L000625,CHICAGO,41.3386,-89.1164,Exact
TOMASEK-CHICAGO,ILBE.MIN ST.14,HYU,WORLD HYUNDAI OF MATTESON,Matteson,IL,60443,01:32:00,01:47:00,15,112,17:30:00,08:00:00,"MINOOKA, IL",,L000664,CHICAGO,41.5011,-87.7435,Exact
TOMASEK-CHICAGO,ILBE.MIN ST.14,KIA,KIA OF OTTAWA BILL WALSH,Ottawa,IL,61350,03:36:00,03:43:00,7,15,19:30:00,08:00:00,"MINOOKA, IL",,L000482,CHICAGO,41.3716,-88.8359,Exact
TOMASEK-CHICAGO,ILBE.MIN ST.14,KUB,LADD FARM EQUIPMENT,Ladd,IL,61329,06:01:00,06:11:00,10,10,22:30:00,08:00:00,"MINOOKA, IL",,L902979,EDGERTON,41.3847,-89.2193,Exact
TOMASEK-CHICAGO,ILBE.MIN ST.14,MCFA,WIESE USA,Peru,IL,61354,05:40:00,05:47:00,7,15,02:30:00,08:00:00,"MINOOKA, IL",,L002594,INDIANAPOLIS,41.3612,-89.1598,Exact
TOMASEK-CHICAGO,ILBE.MIN ST.14,TOY,BILL WALSH TOYOTA,Ottawa,IL,61350,03:48:00,03:55:00,7,15,22:30:00,07:00:00,"MINOOKA, IL",,L000326,CHICAGO,41.3788,-88.8359,Exact
TOMASEK-CHICAGO,ILBE.MIN ST.14,VOL,CENTRAL ILLINOIS TRUCKS,Peru,IL,61354,04:55:00,05:05:00,10,240,21:30:00,08:00:00,"MINOOKA, IL",,L003203,JOLIET,41.3672,-89.1387,Exact
TOMASEK-CHICAGO,ILBE.MIN ST.14,VOL,CENTRAL ILLINOIS TRUCKS MACK,Peru,IL,61354,05:05:00,05:15:00,10,28,21:30:00,08:00:00,"MINOOKA, IL",,L904054,JOLIET,41.3672,-89.1387,Exact
TOMASEK-CHICAGO,ILBE.MIN ST.14,VOL,POZZO ILLINOIS,South Chicago Heights,IL,60411,23:44:00,00:03:00,19,240,21:30:00,08:00:00,"MINOOKA, IL",,L003197,JOLIET,41.4814,-87.6303,Exact
TOMASEK-CHICAGO,ILBE.MIN ST.14,VOL,POZZO TRUCK CENTER,Gary,IN,46405,00:37:00,00:53:00,16,720,21:30:00,08:00:00,"MINOOKA, IL",,L003198,JOLIET,41.5859,-87.3015,Exact
TOMASEK-CHICAGO,ILBE.MIN ST.15,AGCO,FLANAGAN IMPLEMENT (AGCO),Flanagan,IL,61740,05:00:00,05:07:00,7,28,20:30:00,08:00:00,"MINOOKA, IL",,L002163,BATAVIA,40.8633,-88.9113,Exact
TOMASEK-CHICAGO,ILBE.MIN ST.15,AIT,APPLIED - BRADLEY,Bradley,IL,60915,07:56:00,08:16:00,20,120,01:30:00,08:00:00,"MINOOKA, IL",@230,L002708,FLORENCE,41.1445,-87.8577,Exact
TOMASEK-CHICAGO,ILBE.MIN ST.15,CNH,STOLLER INTERNATIONAL,Minonk,IL,61760,04:33:00,04:40:00,7,28,02:30:00,09:00:00,"MINOOKA, IL",@230,L001194,LEBANON,40.9129,-89.0497,MANUAL
TOMASEK-CHICAGO,ILBE.MIN ST.15,CNH,STOLLER INTERNATIONAL,Streator,IL,61364,03:28:00,03:38:00,10,56,02:30:00,08:00:00,"MINOOKA, IL",@230,L001225,LEBANON,41.121,-88.7965,Exact
TOMASEK-CHICAGO,ILBE.MIN ST.15,CNH,STOLLER INTERNATIONAL,Herscher,IL,60941,07:22:00,07:29:00,7,28,02:30:00,08:00:00,"MINOOKA, IL",@230,L001184,LEBANON,41.057,-88.0954,Exact
TOMASEK-CHICAGO,ILBE.MIN ST.15,CNH,STOLLER INTL,Pontiac,IL,61764,05:43:00,05:53:00,10,112,02:30:00,08:00:00,"MINOOKA, IL",@230,L001208,LEBANON,40.8929,-88.6328,Exact
TOMASEK-CHICAGO,ILBE.MIN ST.15,CNH,UNION HILL SALES & SERVICE,Union Hill,IL,60969,06:58:00,07:05:00,7,28,02:30:00,08:00:00,"MINOOKA, IL",@230,L001229,LEBANON,41.1083,-88.1467,MANUAL
TOMASEK-CHICAGO,ILBE.MIN ST.15,DRE,SHOREWOOD HOME & AUTO,Crete,IL,60417,09:01:00,09:17:00,16,82,08:00:00,10:00:00,"MINOOKA, IL",,L001557,MILAN MW,41.4686,-87.579,Exact
TOMASEK-CHICAGO,ILBE.MIN ST.15,FRD,DELONG FORD,Dwight,IL,60420,06:23:00,06:33:00,10,28,02:30:00,08:00:00,"MINOOKA, IL",,L902965,INDIANAPOLIS,41.093,-88.4248,Exact
TOMASEK-CHICAGO,ILBE.MIN ST.15,FRD,FRAHER FORD SALES,Pontiac,IL,61764,05:32:00,05:37:00,5,84,02:30:00,08:00:00,"MINOOKA, IL",,L903292,INDIANAPOLIS,40.876,-88.6395,Exact
TOMASEK-CHICAGO,ILBE.MIN ST.15,FRD,STAR FORD,Streator,IL,61364,03:49:00,03:56:00,7,15,02:30:00,08:00:00,"MINOOKA, IL",,L000273,INDIANAPOLIS,41.1484,-88.8359,Exact
TOMASEK-CHICAGO,ILBE.MIN ST.16,AGCO,PLEVNA IMPLEMENT CO,Garrett,IN,46738,08:04:00,08:14:00,10,28,00:45:00,08:00:00,"MINOOKA, IL",,L904344,BATAVIA,41.3638,-85.1118,MANUAL
TOMASEK-CHICAGO,ILBE.MIN ST.16,DRE,GREENMARK EQUIPMENT,Union,MI,49130,05:45:00,05:50:00,5,56,21:30:00,07:00:00,"MINOOKA, IL",,L001785,MILAN LW,41.7876,-85.8488,Exact
TOMASEK-CHICAGO,ILBE.MIN ST.16,DRE,GREENMARK EQUIPMENT,LaGrange,IN,46761,06:28:00,06:45:00,17,272,20:30:00,07:00:00,"MINOOKA, IL",,L002581,MILAN LW,41.6842,-85.4243,Exact
TOMASEK-CHICAGO,ILBE.MIN ST.16,DRE,Truland Equipment,Angola,IN,46703,07:20:00,07:30:00,10,84,20:30:00,07:00:00,"MINOOKA, IL",,L001640,MILAN LW,41.6572,-85.0037,Exact
TOMASEK-CHICAGO,ILBE.MIN ST.17,AIT,APPLIED - ELK GROVE VILLAGE,Elk Grove Village,IL,60007,05:36:00,05:52:00,16,224,01:30:00,07:00:00,"MINOOKA, IL",@200,L002705,FLORENCE,42.0132,-87.9616,Exact
TOMASEK-CHICAGO,ILBE.MIN ST.17,CMN,N POWER,Elmhurst,IL,60126,06:10:00,06:20:00,10,120,22:00:00,08:00:00,"MINOOKA, IL",,L002659,INDIANAPOLIS,41.9229,-87.9398,Exact
TOMASEK-CHICAGO,ILBE.MIN ST.17,CNH,"MCCANN INDUSTRIES, INC.",Addison,IL,60101,05:09:00,05:16:00,7,10,02:30:00,09:00:00,"MINOOKA, IL",,L001155,LEBANON,41.916,-88.0323,Exact
TOMASEK-CHICAGO,ILBE.MIN ST.17,FRD,FAIR OAKS LINCOLN,Naperville,IL,60540,04:05:00,04:15:00,10,56,23:00:00,08:00:00,"MINOOKA, IL",,L902697,INDIANAPOLIS,41.7701,-88.1863,Exact
TOMASEK-CHICAGO,ILBE.MIN ST.17,FRD,FREEWAY FD TRK SLS,Lyons,IL,60534,03:17:00,03:37:00,20,277,23:00:00,07:00:00,"MINOOKA, IL",,L903950,INDIANAPOLIS,41.8097,-87.8324,Exact
TOMASEK-CHICAGO,ILBE.MIN ST.17,FRD,OGDEN LINCOLN,Hinsdale,IL,60521,04:37:00,04:47:00,10,28,23:00:00,10:00:00,"MINOOKA, IL",,L002562,INDIANAPOLIS,41.8102,-87.9789,MANUAL
TOMASEK-CHICAGO,ILBE.MIN ST.17,HYU,WILKINS HYUNDAI,Elmhurst,IL,60126,06:20:00,06:29:00,9,112,19:30:00,08:00:00,"MINOOKA, IL",,L000657,CHICAGO,41.9226,-87.9398,Exact
TOMASEK-CHICAGO,ILBE.MIN ST.17,KIA,NAPLETONS KIA OF ELMHURST,Elmhurst,IL,60126,06:37:00,06:47:00,10,112,19:30:00,08:00:00,"MINOOKA, IL",,L000478,CHICAGO,41.9248,-87.9624,Exact
TOMASEK-CHICAGO,ILBE.MIN ST.18,9WES,WES CAROL STREAM PDC,Carol Stream,IL,60188,16:23:00,16:38:00,15,0,15:30:00,23:59:00,"MINOOKA, IL",,9WES-CAROL STREAM,CAROL STREAM,41.93,-88.1183,Exact
TOMASEK-CHICAGO,ILBE.MIN ST.18,GNS,GENESIS OF SCHAUMBURG,Schaumburg,IL,60173,19:15:00,19:16:00,1,28,17:00:00,08:00:00,"MINOOKA, IL",,L003401,CHICAGO,42.0503,-88.0529,Exact
TOMASEK-CHICAGO,ILBE.MIN ST.18,HYU,AUTONATION HYUNDAI O'HARE,Des Plaines,IL,60018,19:52:00,19:57:00,5,112,17:30:00,08:00:00,"MINOOKA, IL",,L002375,CHICAGO,42.0253,-87.8772,Exact
TOMASEK-CHICAGO,ILBE.MIN ST.18,HYU,PATRICK HYUNDAI,Schaumburg,IL,60173,19:09:00,19:15:00,6,392,17:00:00,08:00:00,"MINOOKA, IL",,L000672,CHICAGO,42.0503,-88.0529,Exact
TOMASEK-CHICAGO,ILBE.MIN ST.18,HYU,PATRICK HYUNDAI,Schaumburg,IL,60173,19:21:00,19:31:00,10,336,17:00:00,08:00:00,"MINOOKA, IL",,L902813,CHICAGO,42.053,-88.062,Exact
TOMASEK-CHICAGO,ILBE.MIN ST.19,AIT,APPLIED - PORTAGE,Portage,IN,46368,02:34:00,02:49:00,15,336,01:30:00,08:00:00,"MINOOKA, IL",,L002713,FLORENCE,41.6052,-87.1583,Exact
TOMASEK-CHICAGO,ILBE.MIN ST.19,CMN,CROSSPOINT,MISHAWAKA,IN,46545-4439,05:27:00,05:47:00,20,224,19:45:00,07:00:00,"MINOOKA, IL",,L002646,INDIANAPOLIS,41.6882,-86.1484,Exact
TOMASEK-CHICAGO,ILBE.MIN ST.19,KIA,SOUTHLAKE KIA,Merrillville,IN,46410,02:00:00,02:10:00,10,112,19:30:00,08:00:00,"MINOOKA, IL",,L000530,CHICAGO,41.4709,-87.2852,Exact
TOMASEK-CHICAGO,ILBE.MIN ST.19,TOY,JORDAN TOYOTA,Mishawaka,IN,46545,05:08:00,05:18:00,10,224,21:00:00,06:00:00,"MINOOKA, IL",,L000343,CHICAGO,41.6731,-86.1705,Exact
TOMASEK-CHICAGO,ILBE.MIN ST.19,TOY,LEXUS OF MISHAWAKA,Mishawaka,IN,46545,04:50:00,05:00:00,10,224,21:00:00,06:00:00,"MINOOKA, IL",,L000392,CHICAGO,41.6993,-86.1874,Exact
TOMASEK-CHICAGO,ILBE.MIN ST.1-AIT,AIT,APPLIED - MADISON,Madison,WI,53718,05:00:00,05:15:00,15,360,00:15:00,09:00:00,"MINOOKA, IL",,L002718,FLORENCE,43.0605,-89.3044,Exact
TOMASEK-CHICAGO,ILBE.MIN ST.1-AIT,AIT,APPLIED - MILWAUKEE,Milwaukee,WI,53224,07:14:00,07:24:00,10,360,00:15:00,08:00:00,"MINOOKA, IL",,L002716,FLORENCE,43.1625,-88.0563,Exact
TOMASEK-CHICAGO,ILBE.MIN ST.1-AIT,AIT,APPLIED - NEW BERLIN,New Berlin,WI,53151,06:30:00,06:45:00,15,240,00:15:00,08:00:00,"MINOOKA, IL",,L900060,FLORENCE,42.9515,-88.1177,Exact
TOMASEK-CHICAGO,ILBE.MIN ST.1-AIT,HYU,JOHN AMATO HYUNDAI,Milwaukee,WI,53051,07:29:00,07:44:00,15,185,07:00:00,10:00:00,"MINOOKA, IL",,L000747,CHICAGO,43.1636,-88.0671,MANUAL
TOMASEK-CHICAGO,ILBE.MIN ST.2,9COL,COLONY COUNTRYSIDE PDC,Countryside,IL,60525,16:05:00,16:20:00,15,0,11:00:00,20:00:00,"MINOOKA, IL",,9COL-COUNTRYSIDE,COUNTRYSIDE,41.7908,-87.8578,Exact
TOMASEK-CHICAGO,ILBE.MIN ST.2,9TOY,TOY CHICAGO PDC,Aurora,IL,60506,11:15:00,12:00:00,45,0,11:15:00,12:00:00,"MINOOKA, IL",,9TOY-CHICAGO,CHICAGO,41.7893,-88.3694,Exact
TOMASEK-CHICAGO,ILBE.MIN ST.2,CNH,CH ROBINSON WORLDWIDE,Des Plaines,IL,60018,09:58:00,10:28:00,30,0,07:00:00,12:00:00,"MINOOKA, IL",,L900878,LEBANON,42.0159,-87.9146,Exact
TOMASEK-CHICAGO,ILBE.MIN ST.2,CNH,CNH MAIL P/U,RACINE,WI,53403-3060,14:21:00,14:46:00,25,0,12:00:00,20:00:00,"MINOOKA, IL",,L900879,LEBANON,42.6969,-87.8047,Exact
TOMASEK-CHICAGO,ILBE.MIN ST.2,CNH,SAVINO DEL BENE,Bensenville,IL,60106,09:16:00,09:46:00,30,0,07:00:00,12:00:00,"MINOOKA, IL",,L900886,LEBANON,41.9793,-87.9451,Exact
TOMASEK-CHICAGO,ILBE.MIN ST.2,TOY,BREDEMANN TOYOTA,Park Ridge,IL,60068,12:47:00,12:54:00,7,224,10:00:00,13:00:00,"MINOOKA, IL",,L002606,CHICAGO,42.0394,-87.8426,Exact
TOMASEK-CHICAGO,ILBE.MIN ST.2,TOY,KENOSHA TOYOTA,Kenosha,WI,53158,13:41:00,13:56:00,15,56,12:00:00,15:00:00,"MINOOKA, IL",,PL000384,CHICAGO,42.5586,-87.953,Exact
TOMASEK-CHICAGO,ILBE.MIN ST.20,CHR,ED MORSE CHRYSLER DODGE JEEP RAM,Kewanee,IL,61443,04:53:00,05:00:00,7,28,23:30:00,08:00:00,"MINOOKA, IL",,L001044,CHICAGO,41.2301,-89.9273,Exact
TOMASEK-CHICAGO,ILBE.MIN ST.20,CNH,ALTA CONTRUCTION EQUIPMENT ILLINOIS,Ottawa,IL,61350,03:10:00,03:20:00,10,28,02:30:00,08:00:00,"MINOOKA, IL",,L904810,LEBANON,41.3794,-88.8292,Exact
TOMASEK-CHICAGO,ILBE.MIN ST.20,CNH,BIRKEY'S,Prophetstown,IL,61277,07:00:00,07:07:00,7,56,00:30:00,08:00:00,"MINOOKA, IL",,L001210,LEBANON,41.6774,-89.9441,Exact
TOMASEK-CHICAGO,ILBE.MIN ST.20,CNH,BIRKEYS,Annawan,IL,61234,05:39:00,05:54:00,15,56,00:30:00,08:00:00,"MINOOKA, IL",,L001159,LEBANON,41.3933,-89.9048,Exact
TOMASEK-CHICAGO,ILBE.MIN ST.20,FRD,ED MORSE FORD,Geneseo,IL,61254,06:19:00,06:24:00,5,28,23:45:00,08:00:00,"MINOOKA, IL",,L000243,INDIANAPOLIS,41.4387,-90.1559,Exact
TOMASEK-CHICAGO,ILBE.MIN ST.20,FRD,GUSTAFSON MOTORS,Kewanee,IL,61443,05:06:00,05:18:00,12,28,23:45:00,08:00:00,"MINOOKA, IL",,L000258,INDIANAPOLIS,41.2439,-89.9293,Exact
TOMASEK-CHICAGO,ILBE.MIN ST.20,FRD,PRESCOTT BROTHERS FORD,Princeton,IL,61356,04:04:00,04:16:00,12,28,23:45:00,08:00:00,"MINOOKA, IL",,L002378,INDIANAPOLIS,41.3716,-89.4826,Exact
TOMASEK-CHICAGO,ILBE.MIN ST.20,FRD,WALNUT FORD,Walnut,IL,61376,07:41:00,07:53:00,12,28,23:45:00,08:00:00,"MINOOKA, IL",,L000269,INDIANAPOLIS,41.56,-89.5972,Exact
TOMASEK-CHICAGO,ILBE.MIN ST.21,CNH,BANE EQUIPMENT,Remington,IN,47977,06:43:00,06:53:00,10,28,02:30:00,08:00:00,"MINOOKA, IL",,L001278,LEBANON,40.771,-87.115,Exact
TOMASEK-GREEN BAY,WIGR.GB.7,DRE,"EIS IMPLEMENT, INC.",TWO RIVERS,WI,54241-9695,05:31:00,05:54:00,23,275,02:00:00,08:00:00,"GREEN BAY, WI",,L001939,MILAN LW,44.1998,-87.6453,Exact
TOMASEK-GREEN BAY,WIGR.GB.7,DRE,REISTERER & SCHNELL,CHILTON,WI,53014-1915,04:35:00,04:54:00,19,250,02:00:00,08:00:00,"GREEN BAY, WI",,L001887,MILAN LW,44.0246,-88.0258,Exact
TOMASEK-GREEN BAY,WIGR.GB.7,DRE,REISTERER & SCHNELL,DENMARK,WI,54208-8829,06:26:00,06:45:00,19,250,02:00:00,08:00:00,"GREEN BAY, WI",,L001893,MILAN LW,44.4427,-87.7859,Exact
TOMASEK-GREEN BAY,WIGR.GB.8,AGCO,TESCH BROTHERS,SEYMOUR,WI,54165-9047,03:47:00,03:52:00,5,12,02:30:00,08:00:00,"GREEN BAY, WI",,L002236,BATAVIA,44.5649,-88.3263,Exact
TOMASEK-GREEN BAY,WIGR.GB.8,AIT,Applied,APPLETON,WI,54911-8496,07:11:00,07:29:00,18,448,05:30:00,08:00:00,"GREEN BAY, WI",,L002715,FLORENCE,44.2841,-88.3579,Exact
TOMASEK-GREEN BAY,WIGR.GB.8,AIT,Applied - 782,WISCONSIN RAPIDS,WI,54495-2247,09:04:00,09:18:00,14,224,05:30:00,08:45:00,"GREEN BAY, WI",,L002720,FLORENCE,44.402,-89.8514,Exact
TOMASEK-GREEN BAY,WIGR.GB.8,CNH,"SERVICE MOTOR CO., INC.",SEYMOUR,WI,54165-1004,03:28:00,03:37:00,9,140,02:30:00,08:00:00,"GREEN BAY, WI",,L001516,LEBANON,44.5217,-88.3299,Exact
TOMASEK-GREEN BAY,WIGR.GB.8,CNH,"SWIDERSKI EQUIPMENT, INC.",WAUPACA,WI,54981,04:50:00,05:05:00,15,140,02:30:00,09:00:00,"GREEN BAY, WI",,L001530,LEBANON,44.311,-89.1628,Exact
TOMASEK-GREEN BAY,WIGR.GB.8,DRE,KITZ & PFEIL,APPLETON,WI,54915-4741,10:50:00,11:00:00,10,23,07:30:00,11:00:00,"GREEN BAY, WI",,L001878,MILAN LW,44.2439,-88.3769,Exact
TOMASEK-GREEN BAY,WIGR.GB.8,KUB,"SERVICE MOTOR CO., INC.",SEYMOUR,WI,54165-1004,03:37:00,03:38:00,1,56,02:30:00,08:00:00,"GREEN BAY, WI",,L902791,EDGERTON,44.5217,-88.3299,Exact
TOMASEK-GREEN BAY,WIGR.GB.8,VOL,GREEN BAY TRUCK SALES,DE PERE,WI,54115-9406,02:43:00,02:59:00,16,360,21:30:00,08:00:00,"GREEN BAY, WI",,L003212,JOLIET,44.4192,-88.1304,Exact
TOMASEK-GREEN BAY,WIGR.GB.9,AIT,Applied,ISHPEMING,MI,49849-1248,10:03:00,10:17:00,14,224,06:00:00,11:00:00,"GREEN BAY, WI",,L002690,FLORENCE,46.4881,-87.6885,Exact
TOMASEK-GREEN BAY,WIGR.GB.9,AIT,Applied,KINGSFORD,MI,49802-5402,07:40:00,07:54:00,14,224,06:00:00,09:00:00,"GREEN BAY, WI",,L002689,FLORENCE,45.8025,-88.0769,Exact
TOMASEK-GREEN BAY,WIGR.GB.9,WES,WESCO GREEN BAY,GREEN BAY,WI,54304-5362,04:52:00,05:08:00,16,480,22:30:00,06:00:00,"GREEN BAY, WI",,L201948,CAROL STREAM,44.4714,-88.0653,Exact
TOMASEK-GREEN BAY,WIGR.GB.9,WES,WESCO KINGSFORD,KINGSFORD,MI,49802-4537,07:22:00,07:38:00,16,336,06:00:00,08:00:00,"GREEN BAY, WI",,L201933,CAROL STREAM,45.8018,-88.073,Exact
TOMASEK-LOUISVILLE,KYLO.MAT.LOU.DRE,9DRE,DRE MATTOON PDC,MATTOON,IL,61938,05:30:00,06:00:00,30,0,06:30:00,06:30:00,"LOUISVILLE, KY",,9DREILM,,39.5354,-88.3495,Exact
TOMASEK-LOUISVILLE,KYLO.PAC.KNOX LH,9PAC,LOUISVILLE PACCAR PDC,Louisville,KY,40272,18:00:00,18:30:00,30,0,18:00:00,18:30:00,"LOUISVILLE, KY",,HUB40299,LOUISVILLE,38.0538,-85.8895,MANUAL
TOMASEK-LOUISVILLE,KYLO.PAC.KNOX LH,HUB,KNOXVILLE DOCK,Knoxville,TN,37914,22:37:00,23:37:00,60,0,18:00:00,09:00:00,"LOUISVILLE, KY",,HUB37921,,35.9987,-83.7801,Exact
TOMASEK-LOUISVILLE,KYLO.PAC.MAD LH,9PAC,LOUISVILLE PACCAR PDC,Louisville,KY,40272,17:07:00,17:37:00,30,0,16:00:00,08:00:00,"LOUISVILLE, KY",,HUB40299,LOUISVILLE,38.0538,-85.8895,MANUAL
TOMASEK-LOUISVILLE,KYLO.PAC.MAD LH,HUB,MADISON DOCK,MADISON,IL,62060-1471,20:50:00,21:20:00,30,0,20:00:00,11:00:00,"LOUISVILLE, KY",,HUB62060,,38.6762,-90.1557,Exact
TOMASEK-LOUISVILLE,KYLO.PAC.NAS LH,9PAC,LOUISVILLE PACCAR PDC,Louisville,KY,40272,18:00:00,18:30:00,30,0,18:00:00,18:30:00,"LOUISVILLE, KY",,HUB40299,LOUISVILLE,38.0538,-85.8895,MANUAL
TOMASEK-LOUISVILLE,KYLO.PAC.NAS LH,HUB,NASHVILLE DOCK,MURFREESBORO,TN,37129-5003,20:27:00,21:37:00,70,0,20:00:00,08:00:00,"LOUISVILLE, KY",,HUB37129,,35.8341,-86.3972,Level1
TOMASEK-LOUISVILLE,KYLO.PAC.SHUTTLE1,9PAC,LOUISVILLE PACCAR PDC,Louisville,KY,40272,20:30:00,21:00:00,30,0,20:30:00,21:00:00,"LOUISVILLE, KY",,HUB40299,LOUISVILLE,38.0538,-85.8895,MANUAL
TOMASEK-LOUISVILLE,KYLO.PAC.SHUTTLE1,PAC,KENWORTH OF CINCINNATI,Cincinnati,OH,45241,01:00:00,01:15:00,15,112,23:30:00,08:00:00,"LOUISVILLE, KY",,L903180,LOUISVILLE,39.2919,-84.4241,Exact
TOMASEK-LOUISVILLE,KYLO.PAC.SHUTTLE1,PAC,TLG PETERBILT-CINCINNATI,Cincinnati,OH,45241,00:46:00,00:56:00,10,112,23:30:00,08:00:00,"LOUISVILLE, KY",,L903230,LOUISVILLE,39.2874,-84.4234,Exact
TOMASEK-LOUISVILLE,KYLO.PAC.SHUTTLE1,WWG,CINCINNATI WWG,Cincinnati,OH,45242,01:29:00,01:55:00,26,896,00:01:00,07:00:00,"LOUISVILLE, KY",,L002811,LOUISVILLE,39.2519,-84.3854,Exact
TOMASEK-LOUISVILLE,KYLO.PAC.SHUTTLE1,WWG,CINCINNATI WWG,Cincinnati,OH,45203,02:19:00,02:41:00,22,672,00:01:00,07:00:00,"LOUISVILLE, KY",,L002810,LOUISVILLE,39.1035,-84.5321,Exact
TOMASEK-LOUISVILLE,KYLO.PAC.SHUTTLE2,9PAC,LOUISVILLE PACCAR PDC,Louisville,KY,40272,16:00:00,16:30:00,30,0,16:00:00,23:59:00,"LOUISVILLE, KY",,HUB40299,LOUISVILLE,38.0538,-85.8895,MANUAL
TOMASEK-LOUISVILLE,KYLO.PAC.SHUTTLE2,9PAC,LOUISVILLE PACCAR PDC,Louisville,KY,40272,18:15:00,18:45:00,30,0,00:01:00,23:59:00,"LOUISVILLE, KY",,HUB40299,LOUISVILLE,38.0538,-85.8895,MANUAL
TOMASEK-LOUISVILLE,KYLO.PAC.SHUTTLE2,9PAC,LOUISVILLE PACCAR PDC,Louisville,KY,40272,20:30:00,21:00:00,30,0,00:01:00,23:59:00,"LOUISVILLE, KY",,HUB40299,LOUISVILLE,38.0538,-85.8895,MANUAL
TOMASEK-LOUISVILLE,KYLO.PAC.SHUTTLE2,9PAC,LOUISVILLE PACCAR PDC,Louisville,KY,40272,22:45:00,23:15:00,30,0,00:01:00,23:59:00,"LOUISVILLE, KY",,HUB40299,LOUISVILLE,38.0538,-85.8895,MANUAL
TOMASEK-LOUISVILLE,KYLO.PAC.SHUTTLE2,HUB,LOUISVILLE DOCK,Louisville,KY,40299,17:07:00,17:37:00,30,0,00:01:00,23:59:00,"LOUISVILLE, KY",,HUB40299,,38.2038,-85.5595,Exact
TOMASEK-LOUISVILLE,KYLO.PAC.SHUTTLE2,HUB,LOUISVILLE DOCK,Louisville,KY,40299,19:22:00,19:52:00,30,0,00:01:00,23:59:00,"LOUISVILLE, KY",,HUB40299,,38.2038,-85.5595,Exact
TOMASEK-LOUISVILLE,KYLO.PAC.SHUTTLE2,HUB,LOUISVILLE DOCK,Louisville,KY,40299,21:38:00,22:08:00,30,0,00:01:00,23:59:00,"LOUISVILLE, KY",,HUB40299,,38.2038,-85.5595,Exact
TOMASEK-LOUISVILLE,KYLO.RIV.GRO,9RIV,RIVIAN PDC,Shepherdsville,KY,40165,16:00:00,16:30:00,30,0,16:00:00,16:30:00,"LOUISVILLE, KY",,,LOUISVILLE,38.0016,-85.706,Exact
TOMASEK-LOUISVILLE,KYLO.RIV.GRO,HUB,GROVEPORT DOCK,Groveport,OH,43125,20:00:00,20:30:00,30,0,20:00:00,08:00:00,"LOUISVILLE, KY",,HUB-GROVEPORT,,39.8854,-82.8885,Exact
TOMASEK-LOUISVILLE,KYLO.RIV.NAS,9RIV,RIVIAN PDC,Shepherdsville,KY,40165,16:00:00,16:30:00,30,0,16:00:00,16:30:00,"LOUISVILLE, KY",,,LOUISVILLE,38.0016,-85.706,Exact
TOMASEK-LOUISVILLE,KYLO.RIV.NAS,9RIV,RIVIAN PDC,Shepherdsville,KY,40165,17:44:00,18:14:00,30,0,17:00:00,18:00:00,"LOUISVILLE, KY",,,LOUISVILLE,38.0016,-85.706,Exact
TOMASEK-LOUISVILLE,KYLO.RIV.NAS,HUB,NASHVILLE DOCK,MURFREESBORO,TN,37129-5003,20:10:00,20:40:00,30,0,16:00:00,08:00:00,"LOUISVILLE, KY",,HUB37129,,35.8341,-86.3972,Level1
TOMASEK-LOUISVILLE,KYLO.WWG NAS LH,9WWG,GRAINGER LOUISVILLE PDC,Louisville,KY,40219,20:00:00,20:30:00,30,0,20:00:00,23:00:00,"LOUISVILLE, KY",,9WWGKY,LOUISVILLE,38.1234,-85.7128,Exact
TOMASEK-LOUISVILLE,KYLO.WWG NAS LH,HUB,NASHVILLE DOCK,MURFREESBORO,TN,37129-5003,22:34:00,23:04:00,30,0,20:00:00,08:00:00,"LOUISVILLE, KY",,HUB37129,,35.8341,-86.3972,Level1
TOMASEK-LOUISVILLE,KYLO.WWG.IND LH,HUB,INDIANAPOLIS DOCK,Whitestown,IN,46075,20:20:00,20:50:00,30,0,20:00:00,08:00:00,"LOUISVILLE WWG PDC, KY",,HUB-INDIANAPOLIS,,39.982,-86.3825,Exact
TOMASEK-LOUISVILLE,KYLO.WWG.IND LH,WWG,369 GRAINGER,Indianapolis,IN,46256,21:19:00,21:39:00,20,560,18:30:00,07:00:00,"LOUISVILLE WWG PDC, KY",,L002829,LOUISVILLE,39.9209,-86.0347,Exact
TOMASEK-LOUISVILLE,KYLO.WWG.IND LH,WWG,INDIANAPOLIS WWG,Indianapolis,IN,46202,22:02:00,22:22:00,20,1008,19:00:00,07:00:00,"LOUISVILLE WWG PDC, KY",,L002828,LOUISVILLE,39.7892,-86.1925,Exact
TOMASEK-LOUISVILLE,KYLO.WWG.LOU SH.KY FM,9RIV,RIVIAN PDC,Shepherdsville,KY,40165,17:00:00,17:30:00,30,0,17:00:00,17:30:00,"LOUISVILLE WWG PDC, KY",,,LOUISVILLE,38.0016,-85.706,Exact
TOMASEK-LOUISVILLE,KYLO.WWG.LOU SH.KY FM,HUB,LOUISVILLE DOCK,Louisville,KY,40299,18:04:00,18:19:00,15,0,17:00:00,08:00:00,"LOUISVILLE WWG PDC, KY",,HUB-LOUISVILLE,,38.2038,-85.5595,Exact
TOMASEK-LOUISVILLE,KYLO.WWG.LOU SH.KY FM,HUB,LOUISVILLE DOCK,Louisville,KY,40299,19:32:00,20:02:00,30,0,19:00:00,14:00:00,"LOUISVILLE WWG PDC, KY",,HUB-LOUISVILLE,,38.2038,-85.5595,Exact
TOMASEK-LOUISVILLE,KYLO.WWG.LOU SH.KY FM,WWG,GRAINGER,Lexington,KY,40511,21:36:00,22:06:00,30,896,19:00:00,06:00:00,"LOUISVILLE WWG PDC, KY",,L002825,LOUISVILLE,38.0792,-84.5079,Exact
TOMASEK-LOUISVILLE,KYLO.WWG.LOU SH.KY FM,WWG,GRAINGER,Louisville,KY,40299,20:08:00,20:34:00,26,896,19:00:00,06:00:00,"LOUISVILLE WWG PDC, KY",,L002823,LOUISVILLE,38.2173,-85.5729,Exact
TOMASEK-LOUISVILLE,KYLO.WWG.OH FM,WWG,COLUMBUS WWG,COLUMBUS,OH,43204-1434,23:28:00,23:48:00,20,560,22:00:00,07:00:00,"LOUISVILLE WWG PDC, KY",,L002804,LOUISVILLE,39.9732,-83.1018,Exact
TOMASEK-LOUISVILLE,KYLO.WWG.OH FM,WWG,DAYTON WWG,Dayton,OH,45414,22:07:00,22:29:00,22,672,19:00:00,07:00:00,"LOUISVILLE WWG PDC, KY",,L002803,LOUISVILLE,39.8189,-84.1619,Exact
TOMASEK-LOUISVILLE,KYLO.WWG.OH FM,WWG,HAMILTON WWG,Hamilton,OH,45011,21:00:00,21:22:00,22,896,19:00:00,07:00:00,"LOUISVILLE WWG PDC, KY",,L002806,LOUISVILLE,39.3389,-84.4754,Exact
TOMASEK-LOUISVILLE,KYLO.WWG.OH FM,WWG,WORTHINGTON WWG,COLUMBUS,OH,43229-1030,00:11:00,00:29:00,18,448,19:00:00,07:00:00,"LOUISVILLE WWG PDC, KY",,L002802,LOUISVILLE,40.1055,-82.9985,Exact
TOMASEK-MADISON,WIMA.MON.1,CNH,"KELBE BROS. EQUIPMENT CO., INC",BUTLER,WI,53007-1008,03:32:00,03:39:00,7,28,21:30:00,08:00:00,"DEFOREST, WI",,L001462,LEBANON,43.117,-88.0676,Exact
TOMASEK-MADISON,WIMA.MON.1,CNH,"MILLER-BRADFORD & RISBERG, INC",SUSSEX,WI,53089-5510,02:31:00,02:41:00,10,84,21:30:00,08:00:00,"DEFOREST, WI",@L,L001522,LEBANON,43.1427,-88.2449,MANUAL
TOMASEK-MADISON,WIMA.MON.1,CNH,"MILWAUKEE TRACTOR & EQUIPMENT, INC.",MILWAUKEE,WI,53225-3012,04:02:00,04:17:00,15,168,21:30:00,08:00:00,"DEFOREST, WI",@L,L001497,LEBANON,43.1192,-88.0596,Exact
TOMASEK-MADISON,WIMA.MON.1,DRE,BROOKS TRACTOR,MILWAUKEE,WI,53225-2920,03:44:00,03:59:00,15,109,21:30:00,08:00:00,"DEFOREST, WI",,L001914,MILAN LW,43.1169,-88.0629,Exact
TOMASEK-MADISON,WIMA.MON.1,DRE,"L & R SPORT MARINE, INC.",LANNON,WI,53046-9747,03:00:00,03:15:00,15,34,20:00:00,08:00:00,"DEFOREST, WI",,L001906,MILAN LW,43.1544,-88.1577,Exact
TOMASEK-MADISON,WIMA.MON.1,DRE,"PROVEN POWER, INC.",WAUKESHA,WI,53189-9660,05:35:00,05:50:00,15,119,20:00:00,08:00:00,"DEFOREST, WI",,L002370,MILAN LW,42.926,-88.1904,MANUAL
TOMASEK-MADISON,WIMA.MON.1,GNS,GENESIS OF WAUKESHA,WAUKESHA,WI,53186-3929,06:26:00,06:27:00,1,15,22:30:00,08:00:00,"DEFOREST, WI",,L003506,CHICAGO,43.0249,-88.205,Exact
TOMASEK-MADISON,WIMA.MON.1,HYU,Arrow Hyundai,WEST ALLIS,WI,53227-2012,04:57:00,05:12:00,15,228,22:30:00,08:00:00,"DEFOREST, WI",,L000745,CHICAGO,42.9989,-88.0454,Exact
TOMASEK-MADISON,WIMA.MON.1,HYU,Boucher Hyundai,WAUKESHA,WI,53186-3929,06:11:00,06:26:00,15,300,22:30:00,08:00:00,"DEFOREST, WI",,L000756,CHICAGO,43.0249,-88.205,Exact
TOMASEK-MADISON,WIMA.MON.1,KIA,Russ Darrow Kia,WAUKESHA,WI,53186-4020,06:33:00,06:48:00,15,150,22:00:00,08:00:00,"DEFOREST, WI",,L000580,CHICAGO,43.0278,-88.1867,Exact
TOMASEK-MADISON,WIMA.MON.1,KIA,Russ Darrow Kia of Wauwatosa,WAUWATOSA,WI,53226-2201,04:30:00,04:45:00,15,112,22:00:00,08:00:00,"DEFOREST, WI",,L000571,CHICAGO,43.0547,-88.0477,Exact
TOMASEK-MADISON,WIMA.MON.10,CNH,"GRUETT, INC",WATERTOWN,WI,53094-3567,06:00:00,06:01:00,1,14,23:00:00,08:00:00,"DEFOREST, WI",,L001527,LEBANON,43.1969,-88.7612,MANUAL
TOMASEK-MADISON,WIMA.MON.10,DRE,Mid-State Equipment,WATERTOWN,WI,53094-9405,06:01:00,06:16:00,15,160,23:30:00,08:00:00,"DEFOREST, WI",,L001941,MILAN LW,43.1969,-88.7612,MANUAL
TOMASEK-MADISON,WIMA.MON.10,DRE,"PROVEN POWER, INC.",OCONOMOWOC,WI,53066-1149,05:27:00,05:34:00,7,112,23:30:00,08:00:00,"DEFOREST, WI",,L001923,MILAN LW,43.1428,-88.4611,MANUAL
TOMASEK-MADISON,WIMA.MON.10,HYU,AMATO HYUNDAI OF GLENDALE,GLENDALE,WI,53217-4901,03:59:00,04:09:00,10,112,22:00:00,08:00:00,"DEFOREST, WI",,L903046,CHICAGO,43.112,-87.9166,Exact
TOMASEK-MADISON,WIMA.MON.10,HYU,Zimbrick Eastside Hyundai,MADISON,WI,53718-6387,02:06:00,02:21:00,15,112,22:30:00,08:00:00,"DEFOREST, WI",,L000759,CHICAGO,43.1425,-89.2887,Exact
TOMASEK-MADISON,WIMA.MON.10,KIA,Ewald Kia of Oconomowoc,OCONOMOWOC,WI,53066-3143,05:10:00,05:17:00,7,56,21:00:00,08:00:00,"DEFOREST, WI",,L000576,CHICAGO,43.1066,-88.4746,Exact
TOMASEK-MADISON,WIMA.MON.10,KIA,LUPIENT KIA MILWAUKEE,GLENDALE,WI,53209-3812,04:16:00,04:31:00,15,140,22:00:00,08:00:00,"DEFOREST, WI",@LG,L000575,CHICAGO,43.1269,-87.9341,Exact
TOMASEK-MADISON,WIMA.MON.10,KIA,Metro Kia of Madison,MADISON,WI,53718-6386,02:22:00,02:37:00,15,112,22:00:00,08:00:00,"DEFOREST, WI",,L000582,CHICAGO,43.1432,-89.2865,Exact
TOMASEK-MADISON,WIMA.MON.10,VOL,MADISON TRUCK SALES,MADISON,WI,53714-1212,01:35:00,01:54:00,19,300,23:00:00,08:00:00,"DEFOREST, WI",,L003214,JOLIET,43.1077,-89.3206,Exact
TOMASEK-MADISON,WIMA.MON.11,CNH,HENNESSEY IMPLEMENT INC,MONROE,WI,53566-1153,03:29:00,03:39:00,10,112,23:00:00,08:00:00,"DEFOREST, WI",,L001499,LEBANON,42.6064,-89.6379,Exact
TOMASEK-MADISON,WIMA.MON.11,CNH,JOHNSON TRACTOR INC,JANESVILLE,WI,53546-8641,04:48:00,05:02:00,14,112,23:00:00,08:00:00,"DEFOREST, WI",3,L001485,LEBANON,42.6967,-88.9521,Exact
TOMASEK-MADISON,WIMA.MON.11,CNH,JOHNSON TRACTOR INC,JUDA,WI,53550,03:57:00,04:06:00,9,200,23:00:00,08:00:00,"DEFOREST, WI",,L002547,LEBANON,42.5937,-89.4979,MANUAL
TOMASEK-MADISON,WIMA.MON.11,CNH,WASHINGTON IMPLT CO,MONTICELLO,WI,53570-9795,02:16:00,02:31:00,15,112,23:00:00,08:00:00,"DEFOREST, WI",,L001500,LEBANON,42.7414,-89.6614,MANUAL
TOMASEK-MADISON,WIMA.MON.11,DRE,Mid-State Equipment,JANESVILLE,WI,53546,05:09:00,05:19:00,10,320,21:00:00,08:00:00,"DEFOREST, WI",,L001904,MILAN LW,42.7098,-88.9582,MANUAL
TOMASEK-MADISON,WIMA.MON.11,DRE,SLOAN IMPLEMENT,MONROE,WI,53566,03:14:00,03:24:00,10,200,21:30:00,08:00:00,"DEFOREST, WI",,L001917,MILAN LW,42.6174,-89.6325,MANUAL
TOMASEK-MADISON,WIMA.MON.11,GM,Kunes Country Superstore,STOUGHTON,WI,53589-3739,01:20:00,01:30:00,10,112,00:30:00,08:00:00,"DEFOREST, WI",,L901163,HUDSON,42.9234,-89.2523,MANUAL
TOMASEK-MADISON,WIMA.MON.11,HYU,BOUCHER HYUNDAI OF JANESVILLE,JANESVILLE,WI,53545-0852,05:29:00,05:43:00,14,56,19:30:00,08:00:00,"DEFOREST, WI",,L000760,CHICAGO,42.7069,-89.0053,Exact
TOMASEK-MADISON,WIMA.MON.11,KIA,JANESVILLE KIA,JANESVILLE,WI,53545-0250,05:50:00,06:05:00,15,112,19:30:00,08:00:00,"DEFOREST, WI",,L000577,CHICAGO,42.7229,-88.9913,Exact
TOMASEK-MADISON,WIMA.MON.11,KUB,JOHNSON TRACTOR INC,JANESVILLE,WI,53546-8641,05:02:00,05:03:00,1,56,23:00:00,08:00:00,"DEFOREST, WI",,L902760,EDGERTON,42.6967,-88.9521,Exact
TOMASEK-MADISON,WIMA.MON.11,KUB,JOHNSON TRACTOR INC,JUDA,WI,53550,04:06:00,04:07:00,1,40,23:00:00,08:00:00,"DEFOREST, WI",,L902759,EDGERTON,42.5937,-89.4979,MANUAL
TOMASEK-MADISON,WIMA.MON.11,TOY,RUDA TOYOTA,MONROE,WI,53566-1050,02:51:00,03:06:00,15,66,19:30:00,07:00:00,"DEFOREST, WI",,L000383,CHICAGO,42.6034,-89.6583,Exact
TOMASEK-MADISON,WIMA.MON.12,PAC,ALLSTATE PB OF EAU CLAIRE,Eau Claire,WI,54703,05:15:00,05:28:00,13,224,14:30:00,08:00:00,"DEFOREST, WI",,L903988,ROCKFORD,44.8449,-91.6018,Exact
TOMASEK-MADISON,WIMA.MON.12,PAC,TRP STORE 026 - RICE LAKE,RICE LAKE,WI,54868,07:21:00,07:36:00,15,112,21:00:00,08:00:00,"DEFOREST, WI",,L904427,ROCKFORD,45.4618,-91.73,Exact
TOMASEK-MADISON,WIMA.MON.12,PAC,WISCONSIN KENWORTH,Mosinee,WI,54455,03:11:00,03:24:00,13,224,01:00:00,08:00:00,"DEFOREST, WI",,L904070,ROCKFORD,44.8163,-89.6725,Exact
TOMASEK-MADISON,WIMA.MON.12,PAC,WISCONSIN KENWORTH,Menomonie,WI,54751,05:52:00,06:05:00,13,224,14:30:00,08:00:00,"DEFOREST, WI",,L904083,ROCKFORD,44.9011,-91.859,Exact
TOMASEK-MADISON,WIMA.MON.13,PAC,WISCONSIN KENWORTH,Green Bay,WI,54304,04:00:00,04:19:00,19,448,21:00:00,08:00:00,"DEFOREST, WI",,L904079,ROCKFORD,44.4932,-88.0466,Exact
TOMASEK-MADISON,WIMA.MON.13,PAC,WISCONSIN KENWORTH-MADISON,Windsor,WI,53598,01:29:00,01:48:00,19,448,21:00:00,08:00:00,"DEFOREST, WI",,L904084,ROCKFORD,43.2003,-89.347,Exact
TOMASEK-MADISON,WIMA.MON.13,PAC,Wisconsin KW-Fond Du Lac,Fond Du Lac,WI,54937,05:28:00,05:38:00,10,112,22:00:00,08:00:00,"DEFOREST, WI",,L904071,ROCKFORD,43.8028,-88.4985,Exact
TOMASEK-MADISON,WIMA.MON.14,PAC,ALLSTATE PB OF LA CROSSE,West Salem,WI,54669,03:35:00,03:48:00,13,224,21:00:00,08:00:00,"DEFOREST, WI",,L903991,ROCKFORD,43.8908,-91.0741,Exact
TOMASEK-MADISON,WIMA.MON.14,PAC,ALLSTATE PB OF ROCHESTER,Stewartville,MN,55976,06:19:00,06:32:00,13,224,17:00:00,08:00:00,"DEFOREST, WI",,L903993,ROCKFORD,43.8806,-92.4949,Exact
TOMASEK-MADISON,WIMA.MON.14,PAC,ALLSTATE PB OF TOMAH,Tomah,WI,54660,02:43:00,02:56:00,13,224,21:00:00,09:00:00,"DEFOREST, WI",,L903997,ROCKFORD,43.9715,-90.4821,Exact
TOMASEK-MADISON,WIMA.MON.14,PAC,ALLSTATE PETERBILT OF WINONA,Minnesota City,MN,55959,05:02:00,05:12:00,10,112,17:00:00,10:00:00,"DEFOREST, WI",,L904069,ROCKFORD,44.0772,-91.7302,Exact
TOMASEK-MADISON,WIMA.MON.14,PAC,RIHM KENWORTH-WINONA,Minnesota City,MN,55959,05:14:00,05:24:00,10,112,17:00:00,10:00:00,"DEFOREST, WI",,L904072,ROCKFORD,44.0743,-91.7293,Exact
TOMASEK-MADISON,WIMA.MON.14,PAC,WISCONSIN KENWORTH-LA CROSSE,Onalaska,WI,54650,04:06:00,04:19:00,13,224,21:00:00,08:00:00,"DEFOREST, WI",,L904080,ROCKFORD,43.8738,-91.1581,Exact
TOMASEK-MADISON,WIMA.MON.2,AGCO,GRANT EQUIPMENT CO INC,CUBA CITY,WI,53807-9703,07:15:00,07:16:00,1,14,23:00:00,08:00:00,"DEFOREST, WI",,L002215,BATAVIA,42.5798,-90.4306,Exact
TOMASEK-MADISON,WIMA.MON.2,AGCO,SCOTT IMPLEMENT,PLATTEVILLE,WI,53818-9537,06:43:00,06:44:00,1,14,23:00:00,08:00:00,"DEFOREST, WI",,L002230,BATAVIA,42.6494,-90.4354,Exact
TOMASEK-MADISON,WIMA.MON.2,CHR,FILLBACK AUTOMOTIVE,PRAIRIE DU CHIEN,WI,53821-3011,04:33:00,04:43:00,10,56,21:30:00,08:00:00,"DEFOREST, WI",,L900024,MINNEAPOLIS,43.0318,-91.1331,Exact
TOMASEK-MADISON,WIMA.MON.2,CNH,"RITCHIE IMPLEMENT, INC.",BARNEVELD,WI,53507-9367,02:22:00,02:31:00,9,84,20:00:00,08:00:00,"DEFOREST, WI",@L,L001454,LEBANON,43.0088,-89.9035,Exact
TOMASEK-MADISON,WIMA.MON.2,CNH,"RITCHIE IMPLEMENT, INC.",DARLINGTON,WI,53530-9272,07:46:00,07:55:00,9,80,20:00:00,09:00:00,"DEFOREST, WI",@L,L001476,LEBANON,42.6625,-90.1287,Exact
TOMASEK-MADISON,WIMA.MON.2,CNH,"RITCHIE IMPLEMENT, INC.",COBB,WI,53526-9633,03:04:00,03:13:00,9,112,21:30:00,08:00:00,"DEFOREST, WI",@L,L001467,LEBANON,42.9672,-90.3368,Exact
TOMASEK-MADISON,WIMA.MON.2,CNH,"RITCHIE IMPLEMENT, INC.",LANCASTER,WI,53813-9701,05:43:00,05:53:00,10,84,21:30:00,08:00:00,"DEFOREST, WI",@L,L001490,LEBANON,42.8353,-90.7326,Exact
TOMASEK-MADISON,WIMA.MON.2,CNH,SCOTT IMPLEMENT CO,PLATTEVILLE,WI,53818-9537,06:44:00,06:54:00,10,28,20:00:00,08:00:00,"DEFOREST, WI",@L,L001506,LEBANON,42.6494,-90.4354,Exact
TOMASEK-MADISON,WIMA.MON.2,DRE,SLOAN IMPLEMENT,MONTFORT,WI,53569-9511,03:25:00,03:35:00,10,112,21:30:00,08:00:00,"DEFOREST, WI",,L001918,MILAN LW,42.9663,-90.4213,Exact
TOMASEK-MADISON,WIMA.MON.2,DRE,SLOAN IMPLEMENT,CUBA CITY,WI,53807-1598,07:04:00,07:09:00,5,28,19:45:00,09:00:00,"DEFOREST, WI",,L001892,MILAN MW,42.5941,-90.4313,Exact
TOMASEK-MADISON,WIMA.MON.2,DRE,SLOAN IMPLEMENT,MT HOREB,WI,53572,01:48:00,02:03:00,15,140,23:30:00,08:00:00,"DEFOREST, WI",,L001919,MILAN LW,43.0106,-89.7201,MANUAL
TOMASEK-MADISON,WIMA.MON.2,DRE,SLOAN IMPLEMENT,BLOOMINGTON,WI,53804-9796,05:08:00,05:18:00,10,112,21:30:00,08:00:00,"DEFOREST, WI",,L001883,MILAN LW,42.8876,-90.9312,MANUAL
TOMASEK-MADISON,WIMA.MON.2,FRD,BLACK HAWK FORD,PRAIRIE DU CHIEN,WI,53821-3011,04:23:00,04:33:00,10,28,00:30:00,08:00:00,"DEFOREST, WI",,L000018,MENOMONIE,43.0318,-91.1331,Exact
TOMASEK-MADISON,WIMA.MON.2,FRD,LES MACK FORD,LANCASTER,WI,53813,06:01:00,06:11:00,10,28,00:30:00,08:00:00,"DEFOREST, WI",,L000117,MENOMONIE,42.8577,-90.7091,Exact
TOMASEK-MADISON,WIMA.MON.2,KUB,"RITCHIE IMPLEMENT, INC.",BARNEVELD,WI,53507-9367,02:31:00,02:32:00,1,56,20:00:00,08:00:00,"DEFOREST, WI",,L902776,EDGERTON,43.0088,-89.9035,Exact
TOMASEK-MADISON,WIMA.MON.2,KUB,"RITCHIE IMPLEMENT, INC.",DARLINGTON,WI,53530-9272,07:55:00,07:56:00,1,56,20:00:00,09:00:00,"DEFOREST, WI",,L902777,EDGERTON,42.6625,-90.1287,Exact
TOMASEK-MADISON,WIMA.MON.2,KUB,"RITCHIE IMPLEMENT, INC.",COBB,WI,53526-9633,03:13:00,03:14:00,1,56,21:30:00,08:00:00,"DEFOREST, WI",,L902805,EDGERTON,42.9672,-90.3368,Exact
TOMASEK-MADISON,WIMA.MON.2,KUB,"RITCHIE IMPLEMENT, INC.",LANCASTER,WI,53813,05:41:00,05:43:00,2,56,20:00:00,08:00:00,"DEFOREST, WI",,L904437,EDGERTON,42.8353,-90.7326,Exact
TOMASEK-MADISON,WIMA.MON.3,AGCO,EDEN EQUIPMENT,EDEN,WI,53019,06:40:00,06:45:00,5,50,23:00:00,08:00:00,"DEFOREST, WI",,L903256,BATAVIA,43.6916,-88.3118,MANUAL
TOMASEK-MADISON,WIMA.MON.3,AGCO,GIBBSVILLE IMPLEMENT,WALDO,WI,53093-1410,05:44:00,05:51:00,7,14,23:00:00,09:00:00,"DEFOREST, WI",,L002228,BATAVIA,43.6592,-87.9427,MANUAL
TOMASEK-MADISON,WIMA.MON.3,AGCO,SCHRAUFNAGEL IMPLEMENT,LOMIRA,WI,53048-9523,07:33:00,07:38:00,5,12,23:00:00,08:00:00,"DEFOREST, WI",,L002224,BATAVIA,43.5871,-88.4483,Exact
TOMASEK-MADISON,WIMA.MON.3,AIT,QUAD GRAPHICS AIT PICK-UP,LOMIRA,WI,53048,07:47:00,07:57:00,10,112,00:15:00,08:00:00,"DEFOREST, WI",,PL002719,FLORENCE,43.6273,-88.4466,MANUAL
TOMASEK-MADISON,WIMA.MON.3,CNH,EDEN EQUIPMENT,EDEN,WI,53019-1413,06:25:00,06:40:00,15,112,20:00:00,08:00:00,"DEFOREST, WI",,L001481,LEBANON,43.6916,-88.3118,MANUAL
TOMASEK-MADISON,WIMA.MON.3,CNH,KNOWLES PRODUCE & TRADING,LOMIRA,WI,53048,07:12:00,07:22:00,10,56,20:00:00,08:00:00,"DEFOREST, WI",,L001491,LEBANON,43.5726,-88.5047,MANUAL
TOMASEK-MADISON,WIMA.MON.3,DRE,BROOKS TRACTOR,SUN PRAIRIE,WI,53590-2521,01:05:00,01:20:00,15,173,23:30:00,08:00:00,"DEFOREST, WI",,L001937,MILAN LW,43.1767,-89.2457,Exact
TOMASEK-MADISON,WIMA.MON.3,DRE,"WEISS IMPLEMENT, INC.",GLENBEULAH,WI,53023-1185,03:49:00,03:59:00,10,36,23:30:00,08:00:00,"DEFOREST, WI",,L001897,MILAN LW,43.797,-88.0507,Exact
TOMASEK-MADISON,WIMA.MON.3,FRD,NAPELTON FORD,COLUMBUS,WI,53925,01:47:00,01:57:00,10,28,00:30:00,08:00:00,"DEFOREST, WI",,L000045,MENOMONIE,43.3446,-89.0425,Exact
TOMASEK-MADISON,WIMA.MON.3,FRD,SCHRAGE BROTHERS,MOUNT CALVARY,WI,53057-9797,03:18:00,03:23:00,5,14,00:30:00,08:00:00,"DEFOREST, WI",,L000090,MENOMONIE,43.8256,-88.2498,Exact
TOMASEK-MADISON,WIMA.MON.3,GM,NAPLETON CHEVY GMC,COLUMBUS,WI,53925-1004,02:03:00,02:13:00,10,56,00:30:00,08:00:00,"DEFOREST, WI",,L001040,HUDSON,43.3423,-89.0301,Exact
TOMASEK-MADISON,WIMA.MON.3,HYU,Van Horn Hyundai,SHEBOYGAN,WI,53081-3098,04:43:00,04:58:00,15,56,22:30:00,08:00:00,"DEFOREST, WI",,L000746,CHICAGO,43.7595,-87.7544,MANUAL
TOMASEK-MADISON,WIMA.MON.3,KIA,VAN HORN KIA,SHEBOYGAN,WI,53081-3693,04:25:00,04:35:00,10,28,22:00:00,08:00:00,"DEFOREST, WI",,L000572,CHICAGO,43.7562,-87.7557,Exact
TOMASEK-MADISON,WIMA.MON.3,VOL,KRIETE TRUCK CENTER SHEBOYGAN,SHEBOYGAN,WI,53081,05:10:00,05:20:00,10,112,20:00:00,08:00:00,"DEFOREST, WI",,L905126,JOLIET,43.7001,-87.7578,Exact
TOMASEK-MADISON,WIMA.MON.4,AGCO,"SWIDERSKI EQUIPMENT, INC.",MOSINEE,WI,54455-1855,06:51:00,06:56:00,5,50,23:00:00,08:00:00,"DEFOREST, WI",@L,L903259,BATAVIA,44.7982,-89.6847,Exact
TOMASEK-MADISON,WIMA.MON.4,CNH,SERVICE MOTOR CO INC.,STEVENS POINT,WI,54482,05:21:00,05:27:00,6,28,20:00:00,09:00:00,"DEFOREST, WI",@L,L001520,LEBANON,44.5757,-89.454,Exact
TOMASEK-MADISON,WIMA.MON.4,CNH,"SWIDERSKI EQUIPMENT, INC.",MOSINEE,WI,54455-1855,06:44:00,06:51:00,7,28,20:00:00,08:00:00,"DEFOREST, WI",@L,L001501,LEBANON,44.7982,-89.6847,Exact
TOMASEK-MADISON,WIMA.MON.4,DRE,BROOKS TRACTOR,PLOVER,WI,54467-9749,04:01:00,04:08:00,7,79,23:30:00,08:00:00,"DEFOREST, WI",,L002380,MILAN LW,44.4249,-89.518,Exact
TOMASEK-MADISON,WIMA.MON.4,DRE,REISTERER & SCHNELL,STEVENS POINT,WI,54482-8513,04:56:00,05:06:00,10,228,23:30:00,08:00:00,"DEFOREST, WI",,L001934,MILAN LW,44.5204,-89.443,MANUAL
TOMASEK-MADISON,WIMA.MON.4,DRE,REISTERER & SCHNELL,WESTFIELD,WI,53964-8875,03:00:00,03:15:00,15,181,23:30:00,08:00:00,"DEFOREST, WI",,L001947,MILAN LW,43.8839,-89.4812,MANUAL
TOMASEK-MADISON,WIMA.MON.4,FRD,BUSHNELL FORD INC,LODI,WI,53555-1122,01:38:00,01:48:00,10,28,00:30:00,08:00:00,"DEFOREST, WI",,L000083,MENOMONIE,43.3127,-89.5258,Exact
TOMASEK-MADISON,WIMA.MON.4,FRD,PORTAGE CARS,PORTAGE,WI,53901,02:20:00,02:30:00,10,28,00:30:00,10:00:00,"DEFOREST, WI",,L000092,MENOMONIE,43.5734,-89.4689,Exact
TOMASEK-MADISON,WIMA.MON.4,HYU,STEVENS POINT HYUNDAI,STEVENS POINT,WI,54481-1322,06:04:00,06:14:00,10,56,22:30:00,08:00:00,"DEFOREST, WI",,L000750,CHICAGO,44.5387,-89.547,Exact
TOMASEK-MADISON,WIMA.MON.4,KUB,SERVICE MOTOR CO INC.,STEVENS POINT,WI,54482,05:27:00,05:28:00,1,56,20:00:00,09:00:00,"DEFOREST, WI",,L902786,EDGERTON,44.5757,-89.454,Exact
TOMASEK-MADISON,WIMA.MON.4,TOY,Mark Toyota,PLOVER,WI,54467-4301,04:17:00,04:37:00,20,140,23:00:00,07:00:00,"DEFOREST, WI",,L000379,CHICAGO,44.4522,-89.5213,Exact
TOMASEK-MADISON,WIMA.MON.4,VOL,JX TRUCK CENTER,KRONENWETTER,WI,54455-6223,07:03:00,07:16:00,13,169,23:00:00,08:00:00,"DEFOREST, WI",,L003210,JOLIET,44.805,-89.674,Exact
TOMASEK-MADISON,WIMA.MON.4,VOL,SCAFFIDI MOTORS,STEVENS POINT,WI,54481-1363,05:42:00,05:55:00,13,203,23:00:00,08:00:00,"DEFOREST, WI",,L003218,JOLIET,44.5383,-89.5447,Exact
TOMASEK-MADISON,WIMA.MON.5,AGCO,KOENECKE EQUIP INC RAC,REEDSBURG,WI,53959-9319,02:51:00,02:52:00,1,14,23:00:00,08:00:00,"DEFOREST, WI",,L002232,BATAVIA,43.5459,-90.0527,MANUAL
TOMASEK-MADISON,WIMA.MON.5,AGCO,PORTLAND IMPLEMENT,CASHTON,WI,54619-7265,04:27:00,04:32:00,5,12,23:00:00,08:00:00,"DEFOREST, WI",,L002210,BATAVIA,43.7429,-90.7952,Exact
TOMASEK-MADISON,WIMA.MON.5,CHR,SLEEPY HOLLOW CHRYSLER,VIROQUA,WI,54665-1149,05:59:00,06:19:00,20,112,00:30:00,08:00:00,"DEFOREST, WI",,L001059,MINNEAPOLIS,43.5772,-90.8892,Exact
TOMASEK-MADISON,WIMA.MON.5,CNH,HUNDT IMPLEMENT,CASHTON,WI,54619-2021,04:38:00,04:45:00,7,56,20:00:00,08:00:00,"DEFOREST, WI",,L901451,LEBANON,43.7425,-90.7796,Exact
TOMASEK-MADISON,WIMA.MON.5,DRE,"HILLSBORO EQUIPMENT, INC.",HILLSBORO,WI,54634,03:30:00,03:50:00,20,233,23:30:00,08:00:00,"DEFOREST, WI",,L001900,MILAN LW,43.6759,-90.3144,MANUAL
TOMASEK-MADISON,WIMA.MON.5,DRE,SLAMA'S LAWN & SERVICE,REEDSBURG,WI,53959-9438,02:33:00,02:40:00,7,37,23:30:00,08:00:00,"DEFOREST, WI",,L002467,MILAN LW,43.5325,-89.9729,Exact
TOMASEK-MADISON,WIMA.MON.5,DRE,TRACTOR CENTRAL,WESTBY,WI,54667,05:20:00,05:35:00,15,79,23:30:00,08:00:00,"DEFOREST, WI",,L001946,MILAN LW,43.6194,-90.879,MANUAL
TOMASEK-MADISON,WIMA.MON.5,FRD,GLACIER VALLEY F & M,BARABOO,WI,53913-2792,02:00:00,02:10:00,10,28,00:30:00,08:00:00,"DEFOREST, WI",,L000096,MENOMONIE,43.46,-89.7657,Exact
TOMASEK-MADISON,WIMA.MON.5,FRD,KOENECKE FM INC,REEDSBURG,WI,53959-9319,02:52:00,03:02:00,10,28,00:30:00,08:00:00,"DEFOREST, WI",,L000067,MENOMONIE,43.5459,-90.0527,MANUAL
TOMASEK-MADISON,WIMA.MON.5,FRD,SLEEPY HOLLOW,VIROQUA,WI,54665,05:44:00,05:54:00,10,28,00:30:00,08:00:00,"DEFOREST, WI",,L002078,MENOMONIE,43.5771,-90.8883,MANUAL
TOMASEK-MADISON,WIMA.MON.5,GM,SLEEPY HOLLOW CHEV-BU-PONT-,VIROQUA,WI,54665-1101,06:25:00,06:45:00,20,112,00:30:00,08:00:00,"DEFOREST, WI",,L001009,HUDSON,43.5743,-90.8889,Exact
TOMASEK-MADISON,WIMA.MON.5,KUB,PORTLAND IMPLEMENT INC,CASHTON,WI,54619-7265,04:50:00,05:00:00,10,56,17:00:00,08:00:00,"DEFOREST, WI",,L903004,EDGERTON,43.7429,-90.7952,Exact
TOMASEK-MADISON,WIMA.MON.6,AGCO,MCFARLANE MANUFACTURING,SAUK CITY,WI,53583-1369,03:23:00,03:26:00,3,14,23:00:00,08:00:00,"DEFOREST, WI",,L002235,BATAVIA,43.2701,-89.7333,Exact
TOMASEK-MADISON,WIMA.MON.6,AGCO,ZIEGLER,DODGEVILLE,WI,53533-9087,07:28:00,07:33:00,5,56,23:00:00,08:00:00,"DEFOREST, WI",,L002217,BATAVIA,42.9699,-90.1113,Exact
TOMASEK-MADISON,WIMA.MON.6,CNH,HENNESSEY IMPLEMENT INC,DODGEVILLE,WI,53533,07:02:00,07:22:00,20,140,20:00:00,08:00:00,"DEFOREST, WI",@L,L001479,LEBANON,42.9761,-90.1329,Exact
TOMASEK-MADISON,WIMA.MON.6,CNH,KALSCHEUR IMPL CO INC,CROSS PLAINS,WI,53528-9478,02:48:00,02:58:00,10,56,20:00:00,08:00:00,"DEFOREST, WI",@L,L001472,LEBANON,43.1145,-89.6594,Exact
TOMASEK-MADISON,WIMA.MON.6,CNH,"SIMPSONS TRACTOR, INC",RICHLAND CENTER,WI,53581-2935,05:42:00,05:49:00,7,28,20:00:00,08:00:00,"DEFOREST, WI",@L,L001512,LEBANON,43.3205,-90.3635,Exact
TOMASEK-MADISON,WIMA.MON.6,CNH,ST. JOSEPH EQUIPMENT INC,LONE ROCK,WI,53556,05:10:00,05:17:00,7,66,20:00:00,08:00:00,"DEFOREST, WI",,L002460,LEBANON,43.2648,-90.293,Exact
TOMASEK-MADISON,WIMA.MON.6,DRE,Mid-State Equipment,PRAIRIE DU SAC,WI,53578-9648,04:13:00,04:28:00,15,194,23:30:00,08:00:00,"DEFOREST, WI",,L001928,MILAN LW,43.2926,-89.7596,MANUAL
TOMASEK-MADISON,WIMA.MON.6,FRD,COURTESY FORD,SAUK CITY,WI,53583-1313,03:44:00,03:51:00,7,28,00:30:00,08:00:00,"DEFOREST, WI",,L000100,MENOMONIE,43.2711,-89.7373,Exact
TOMASEK-MADISON,WIMA.MON.6,FRD,FILLBACK FORD INC,RICHLAND CENTER,WI,53581,05:29:00,05:36:00,7,28,00:30:00,08:00:00,"DEFOREST, WI",,L000060,MENOMONIE,43.3146,-90.3483,Exact
TOMASEK-MADISON,WIMA.MON.6,FRD,FILLBACK FORD INC,HIGHLAND,WI,53543-9770,06:25:00,06:35:00,10,28,00:30:00,08:00:00,"DEFOREST, WI",,L000098,MENOMONIE,43.0446,-90.3804,Exact
TOMASEK-MADISON,WIMA.MON.6,GM,KAYSER CHEVROLET,SAUK CITY,WI,53583-1301,03:30:00,03:42:00,12,56,00:30:00,08:00:00,"DEFOREST, WI",,L001038,HUDSON,43.2713,-89.7339,Exact
TOMASEK-MADISON,WIMA.MON.6,GNS,ZIMBRICK,MADISON,WI,53713-2333,01:47:00,01:48:00,1,56,21:00:00,08:00:00,"DEFOREST, WI",,L900018,CHICAGO,43.0342,-89.4124,Exact
TOMASEK-MADISON,WIMA.MON.6,HYU,Zimbrick Hyundai West,MADISON,WI,53713-2333,01:48:00,01:57:00,9,112,21:00:00,08:00:00,"DEFOREST, WI",,L000757,CHICAGO,43.0342,-89.4124,Exact
TOMASEK-MADISON,WIMA.MON.6,KIA,"RUSS DARROW MAD., KIA",MADISON,WI,53719-1112,02:10:00,02:25:00,15,112,21:00:00,08:00:00,"DEFOREST, WI",,L000579,CHICAGO,43.0549,-89.4933,Exact
TOMASEK-MADISON,WIMA.MON.6,KUB,MCFARLANE MFG CO INC,SAUK CITY,WI,53583-1369,03:54:00,04:04:00,10,56,17:00:00,08:00:00,"DEFOREST, WI",,L903006,EDGERTON,43.2701,-89.7333,Exact
TOMASEK-MADISON,WIMA.MON.7,AGCO,VANDERLOOP EQUIPMENT,BEAVER DAM,WI,53916-9363,05:03:00,05:13:00,10,50,23:00:00,08:00:00,"DEFOREST, WI",,L903258,BATAVIA,43.5122,-88.8043,MANUAL
TOMASEK-MADISON,WIMA.MON.7,AGCO,WAUPUN EQUIPMENT,WAUPUN,WI,53963,06:02:00,06:03:00,1,14,23:00:00,08:00:00,"DEFOREST, WI",,L002245,BATAVIA,43.6322,-88.7641,MANUAL
TOMASEK-MADISON,WIMA.MON.7,AGCO,ZIEGLER AG,DE FOREST,WI,53532-1999,02:06:00,02:11:00,5,50,23:00:00,08:00:00,"DEFOREST, WI",,L903257,BATAVIA,43.258,-89.3844,Exact
TOMASEK-MADISON,WIMA.MON.7,CNH,"AG SYSTEMS, INC.",DE FOREST,WI,53532-2759,01:40:00,01:47:00,7,56,20:00:00,08:00:00,"DEFOREST, WI",@L,L001477,LEBANON,43.2075,-89.3192,Exact
TOMASEK-MADISON,WIMA.MON.7,CNH,FARMERS' IMPLEMENT,COLUMBUS,WI,53925-1000,03:33:00,03:43:00,10,84,20:00:00,08:00:00,"DEFOREST, WI",@L,L001471,LEBANON,43.3418,-89.0485,Exact
TOMASEK-MADISON,WIMA.MON.7,CNH,"JOHNSON SALES, INC.",ARLINGTON,WI,53911-9721,02:51:00,02:58:00,7,66,20:00:00,08:00:00,"DEFOREST, WI",@L,L001452,LEBANON,43.3231,-89.326,MANUAL
TOMASEK-MADISON,WIMA.MON.7,CNH,"MILLER-BRADFORD & RISBERG, INC",DEFOREST,WI,53532,01:29:00,01:36:00,7,56,20:00:00,08:00:00,"DEFOREST, WI",,L001153,LEBANON,43.204,-89.3203,MANUAL
TOMASEK-MADISON,WIMA.MON.7,CNH,WAUPUN EQUIPMENT,WAUPUN,WI,53963,06:03:00,06:13:00,10,80,20:00:00,08:00:00,"DEFOREST, WI",@L,L001532,LEBANON,43.6322,-88.7641,MANUAL
TOMASEK-MADISON,WIMA.MON.7,DRE,BALLWEG IMPL.,WAUPUN,WI,53963-9024,05:35:00,05:58:00,23,252,23:30:00,08:00:00,"DEFOREST, WI",,L001942,MILAN LW,43.627,-88.7641,MANUAL
TOMASEK-MADISON,WIMA.MON.7,DRE,BALLWEG TURF & LEISURE,BEAVER DAM,WI,53916-1105,04:47:00,04:54:00,7,40,23:30:00,08:00:00,"DEFOREST, WI",,L001882,MILAN LW,43.4804,-88.8206,Exact
TOMASEK-MADISON,WIMA.MON.7,DRE,Mid-State Equipment,COLUMBUS,WI,53925-9511,03:48:00,03:55:00,7,112,23:00:00,08:00:00,"DEFOREST, WI",,L903261,MILAN LW,43.3455,-89.0437,Exact
TOMASEK-MADISON,WIMA.MON.7,DRE,Mid-State Equipment,COLUMBUS,WI,53925,04:06:00,04:21:00,15,250,23:30:00,08:00:00,"DEFOREST, WI",,L001891,MILAN LW,43.3115,-89.0563,MANUAL
TOMASEK-MADISON,WIMA.MON.7,FRD,BELL MOTORS,ARLINGTON,WI,53911,02:32:00,02:42:00,10,28,00:30:00,08:00:00,"DEFOREST, WI",,L000065,MENOMONIE,43.3375,-89.372,Exact
TOMASEK-MADISON,WIMA.MON.7,GM,HOMAN CHEVROLET,WAUPUN,WI,53963-2288,06:22:00,06:29:00,7,56,00:30:00,08:00:00,"DEFOREST, WI",,L001004,HUDSON,43.6402,-88.715,Exact
TOMASEK-MADISON,WIMA.MON.7,GM,"JOHNSON SALES, INC",ARLINGTON,WI,53911-9721,02:58:00,03:08:00,10,56,00:30:00,08:00:00,"DEFOREST, WI",,L001039,HUDSON,43.3231,-89.326,MANUAL
TOMASEK-MADISON,WIMA.MON.8,CNH,CARL STATZ & SONS INC,WAUNAKEE,WI,53597-9030,00:19:00,00:29:00,10,112,20:00:00,08:00:00,"DEFOREST, WI",@L,L001528,LEBANON,43.1898,-89.4219,Exact
TOMASEK-MADISON,WIMA.MON.8,CNH,FARMERS' IMPLEMENT,ALLENTON,WI,53002-9558,05:15:00,05:22:00,7,28,20:00:00,09:00:00,"DEFOREST, WI",@L,L001444,LEBANON,43.4197,-88.3424,Exact
TOMASEK-MADISON,WIMA.MON.8,CNH,SERVICE MOTOR CO INC,FOND DU LAC,WI,54937,03:14:00,03:23:00,9,112,20:00:00,08:00:00,"DEFOREST, WI",,L001483,LEBANON,43.6602,-88.4344,MANUAL
TOMASEK-MADISON,WIMA.MON.8,CNH,ST LAWRENCE EQUIP INC,HARTFORD,WI,53027-9436,05:32:00,05:39:00,7,28,20:00:00,09:00:00,"DEFOREST, WI",,L001484,LEBANON,43.3693,-88.333,Exact
TOMASEK-MADISON,WIMA.MON.8,CNH,STRUPP IMPL INC,SLINGER,WI,53086-9439,05:49:00,05:56:00,7,28,20:00:00,09:00:00,"DEFOREST, WI",,L001518,LEBANON,43.3354,-88.286,Exact
TOMASEK-MADISON,WIMA.MON.8,DRE,Mid-State Equipment,JACKSON,WI,53037-9777,06:07:00,06:22:00,15,121,23:30:00,08:00:00,"DEFOREST, WI",,L001903,MILAN LW,43.3166,-88.2213,Exact
TOMASEK-MADISON,WIMA.MON.8,DRE,REISTERER & SCHNELL,CAMPBELLSPORT,WI,53010-2147,03:44:00,03:54:00,10,121,23:30:00,08:00:00,"DEFOREST, WI",,L001886,MILAN LW,43.5875,-88.3644,MANUAL
TOMASEK-MADISON,WIMA.MON.8,DRE,REISTERER & SCHNELL,FOND DU LAC,WI,54937-9508,02:44:00,02:51:00,7,66,23:30:00,08:00:00,"DEFOREST, WI",,L001896,MILAN LW,43.7839,-88.3576,MANUAL
TOMASEK-MADISON,WIMA.MON.8,DRE,Revels Turf,ALLENTON,WI,53002-9565,05:04:00,05:11:00,7,37,23:30:00,08:00:00,"DEFOREST, WI",,L002621,MILAN LW,43.4211,-88.3493,Exact
TOMASEK-MADISON,WIMA.MON.8,HYU,Van Horn Hyundai of Fond Du Lac,FOND DU LAC,WI,54937-8853,01:45:00,01:55:00,10,28,22:30:00,08:00:00,"DEFOREST, WI",,L000748,CHICAGO,43.7836,-88.5036,MANUAL
TOMASEK-MADISON,WIMA.MON.8,KUB,LOCHEN EQUIPMENT,NEWBURG,WI,53060,04:29:00,04:39:00,10,56,17:00:00,08:00:00,"DEFOREST, WI",,L903005,EDGERTON,43.4323,-88.0477,Exact
TOMASEK-MADISON,WIMA.MON.8,KUB,SERVICE MOTOR CO INC,FOND DU LAC,WI,54937,03:23:00,03:24:00,1,56,20:00:00,08:00:00,"DEFOREST, WI",,L902789,EDGERTON,43.6602,-88.4344,MANUAL
TOMASEK-MADISON,WIMA.MON.8,VOL,FOND DU LAC TRUCK SALES,FOND DU LAC,WI,54937,02:06:00,02:25:00,19,300,23:00:00,08:00:00,"DEFOREST, WI",,L003211,JOLIET,43.8115,-88.5126,Exact
TOMASEK-MADISON,WIMA.MON.9,AGCO,ST JOSEPH,LA CROSSE,WI,54602,07:00:00,07:05:00,5,14,23:00:00,09:00:00,"DEFOREST, WI",,L002221,BATAVIA,43.7842,-91.0478,MANUAL
TOMASEK-MADISON,WIMA.MON.9,CNH,ST. JOSEPH EQUIPMENT INC,NORWALK,WI,54648,03:08:00,03:15:00,7,28,20:00:00,08:00:00,"DEFOREST, WI",@L,L001504,LEBANON,43.8251,-90.6127,Exact
TOMASEK-MADISON,WIMA.MON.9,CNH,ST. JOSEPH EQUIPMENT INC.,LA CROSSE,WI,54601,06:52:00,06:59:00,7,77,20:00:00,08:00:00,"DEFOREST, WI",,L901455,LEBANON,43.7845,-91.0469,MANUAL
TOMASEK-MADISON,WIMA.MON.9,CNH,TITAN MACHINERY INC.,LA CROSSE,WI,54601-2643,06:40:00,06:47:00,7,58,20:00:00,08:00:00,"DEFOREST, WI",,L901454,LEBANON,43.78,-91.0629,MANUAL
TOMASEK-MADISON,WIMA.MON.9,DRE,BROOKS TRACTOR,SPARTA,WI,54656,03:41:00,04:01:00,20,448,21:30:00,08:00:00,"DEFOREST, WI",,L903475,MILAN LW,43.919,-90.8202,MANUAL
TOMASEK-MADISON,WIMA.MON.9,DRE,BROOKS TRACTOR,WEST SALEM,WI,54669-1064,04:55:00,05:05:00,10,89,23:30:00,08:00:00,"DEFOREST, WI",,L001944,MILAN LW,43.901,-91.0912,Exact
TOMASEK-MADISON,WIMA.MON.9,DRE,TRACTOR CENTRAL,WEST SALEM,WI,54669-9565,04:24:00,04:34:00,10,160,23:30:00,08:00:00,"DEFOREST, WI",,L002464,MILAN LW,43.8891,-91.0963,MANUAL
TOMASEK-MADISON,WIMA.MON.9,FRD,RUDIG JENSEN FORD LM,NEW LISBON,WI,53950-1531,02:12:00,02:22:00,10,28,00:30:00,08:00:00,"DEFOREST, WI",,L000017,MENOMONIE,43.8812,-90.1402,Exact
TOMASEK-MADISON,WIMA.MON.9,HYU,Dahl Hyundai,LA CROSSE,WI,54601-4461,06:08:00,06:18:00,10,56,22:30:00,08:00:00,"DEFOREST, WI",,L000758,CHICAGO,43.8189,-91.2508,Exact
TOMASEK-MADISON,WIMA.MON.9,KIA,Brenengen Kia,WEST SALEM,WI,54669-9405,04:40:00,04:50:00,10,56,20:00:00,08:00:00,"DEFOREST, WI",,L000581,CHICAGO,43.8983,-91.1044,Exact
TOMASEK-MADISON,WIMA.MON.9,TOY,TOYOTA OF LACROSSE,LA CROSSE,WI,54601-4410,05:47:00,06:02:00,15,112,23:00:00,07:00:00,"DEFOREST, WI",,L000388,CHICAGO,43.8052,-91.2535,Exact
TOMASEK-MADISON,WIMA.MON.9,VOL,BOB FRISE ENTERPRISES,LA CROSSE,WI,54603-3119,05:26:00,05:39:00,13,180,23:00:00,08:00:00,"DEFOREST, WI",,L003209,JOLIET,43.8251,-91.2542,Exact
TOMASEK-MADISON,WIMA.MON.GB.LH 1,DRE,KITZ & PFEIL,OSHKOSH,WI,54901-4907,04:21:00,04:28:00,7,59,23:30:00,08:00:00,"DEFOREST, WI",,L001925,MILAN LW,44.0192,-88.5376,Exact
TOMASEK-MADISON,WIMA.MON.GB.LH 1,DRE,REISTERER & SCHNELL,NEENAH,WI,54956-1406,03:46:00,03:53:00,7,91,23:30:00,08:00:00,"DEFOREST, WI",,L001920,MILAN LW,44.2245,-88.4705,Exact
TOMASEK-MADISON,WIMA.MON.GB.LH 1,FRD,KLEIN FORD,WINNECONNE,WI,54986-9782,05:17:00,05:22:00,5,28,00:30:00,08:00:00,"DEFOREST, WI",,L903110,MENOMONIE,44.1124,-88.6918,Exact
TOMASEK-MADISON,WIMA.MON.GB.LH 1,GNS,GENESIS OF APPLETON,APPLETON,WI,54913,03:13:00,03:18:00,5,28,22:30:00,08:00:00,"DEFOREST, WI",,L903482,CHICAGO,44.2891,-88.4761,MANUAL
TOMASEK-MADISON,WIMA.MON.GB.LH 1,HUB,GREEN BAY DOCK,GREEN BAY,WI,54304-5652,01:13:00,02:02:00,49,0,21:30:00,08:00:00,"DEFOREST, WI",@DEF.GB1-0,HUB54304,,44.4722,-88.0958,Exact
TOMASEK-MADISON,WIMA.MON.GB.LH 1,HYU,Bergstrom Hyundai,APPLETON,WI,54913-7958,02:55:00,03:10:00,15,112,22:30:00,08:00:00,"DEFOREST, WI",,L000753,CHICAGO,44.2911,-88.4705,Exact
TOMASEK-MADISON,WIMA.MON.GB.LH 1,KIA,BERGSTROM KIA,OSHKOSH,WI,54904-8907,04:39:00,04:54:00,15,112,20:00:00,08:00:00,"DEFOREST, WI",,L000574,CHICAGO,43.9775,-88.5834,Exact
TOMASEK-MADISON,WIMA.MON.GB.LH 1,KIA,BERGSTROM KIA APPLETON,APPLETON,WI,54914-4603,03:29:00,03:36:00,7,66,22:00:00,08:00:00,"DEFOREST, WI",,L002468,CHICAGO,44.2617,-88.4452,Exact
TOMASEK-MADISON,WIMA.MON.GB.LH 1,TOY,Bergstrom Lexus,APPLETON,WI,54913-7958,02:38:00,02:53:00,15,224,23:00:00,07:00:00,"DEFOREST, WI",,L000418,CHICAGO,44.2929,-88.4679,Exact
TOMASEK-MADISON,WIMA.MON.GB.LH 2,AGCO,BOHN IMPLEMENT INC,BERLIN,WI,54923-2145,05:45:00,05:48:00,3,14,23:00:00,08:00:00,"DEFOREST, WI",,L002205,BATAVIA,43.9619,-88.9415,Exact
TOMASEK-MADISON,WIMA.MON.GB.LH 2,CNH,"MILLER-BRADFORD & RISBERG, INC",DE PERE,WI,54115-7700,02:19:00,02:26:00,7,56,20:00:00,08:00:00,"DEFOREST, WI",@L,L001478,LEBANON,44.416,-88.1327,Exact
TOMASEK-MADISON,WIMA.MON.GB.LH 2,CNH,SERVICE MOTOR CO INC,DALE,WI,54931,04:24:00,04:33:00,9,140,20:00:00,09:00:00,"DEFOREST, WI",@L,L001475,LEBANON,44.2736,-88.6744,MANUAL
TOMASEK-MADISON,WIMA.MON.GB.LH 2,CNH,"SWIDERSKI EQUIPMENT, INC.",APPLETON,WI,54913-8857,03:15:00,03:22:00,7,84,20:00:00,08:00:00,"DEFOREST, WI",@L,L001449,LEBANON,44.2854,-88.4904,Exact
TOMASEK-MADISON,WIMA.MON.GB.LH 2,CNH,WEYERS EQUIPMENT INC,KAUKAUNA,WI,54130-9680,02:45:00,02:52:00,7,28,20:00:00,08:00:00,"DEFOREST, WI",@L,L001487,LEBANON,44.3061,-88.2438,MANUAL
TOMASEK-MADISON,WIMA.MON.GB.LH 2,DRE,KITZ & PFEIL,BERLIN,WI,54923,05:30:00,05:37:00,7,34,23:30:00,08:00:00,"DEFOREST, WI",,L002589,MILAN LW,43.9676,-88.9752,MANUAL
TOMASEK-MADISON,WIMA.MON.GB.LH 2,DRE,REISTERER & SCHNELL,HORTONVILLE,WI,54944-9440,03:35:00,03:54:00,19,260,23:30:00,08:00:00,"DEFOREST, WI",,L001901,MILAN LW,44.3211,-88.5769,Exact
TOMASEK-MADISON,WIMA.MON.GB.LH 2,FRD,ALL WORLD FORD,HORTONVILLE,WI,54944,04:01:00,04:06:00,5,28,00:30:00,08:00:00,"DEFOREST, WI",,L000086,MENOMONIE,44.3299,-88.6039,MANUAL
TOMASEK-MADISON,WIMA.MON.GB.LH 2,FRD,GAGNE F-M,PRINCETON,WI,54968-9140,06:15:00,06:22:00,7,28,00:30:00,10:00:00,"DEFOREST, WI",,L000072,MENOMONIE,43.851,-89.1297,Exact
TOMASEK-MADISON,WIMA.MON.GB.LH 2,FRD,SONDALLE F-L-M,BERLIN,WI,54923-9147,05:16:00,05:23:00,7,28,00:30:00,08:00:00,"DEFOREST, WI",,L000061,MENOMONIE,43.9826,-88.9569,Exact
TOMASEK-MADISON,WIMA.MON.GB.LH 2,HUB,GREEN BAY DOCK,GREEN BAY,WI,54304-5652,01:43:00,02:03:00,20,0,21:30:00,08:00:00,"DEFOREST, WI",@DEF.GB2-0,HUB54304,,44.4722,-88.0958,Exact
TOMASEK-MADISON,WIMA.MON.GB.LH 2,KUB,SERVICE MOTOR CO INC,DALE,WI,54931,04:33:00,04:34:00,1,56,20:00:00,09:00:00,"DEFOREST, WI",,L902790,EDGERTON,44.2736,-88.6744,MANUAL
TOMASEK-MENOMONIE,WIME.MEN.1,FRD,DON JOHNSON MOTORS,CUMBERLAND,WI,54829,23:25:00,23:32:00,7,28,21:30:00,08:00:00,"MENOMONIE, WI",,L000155,MENOMONIE,45.5309,-92.0419,Exact
TOMASEK-MENOMONIE,WIME.MEN.1,FRD,LINK FORD-MINONG INC,MINONG,WI,54859-9185,00:22:00,00:32:00,10,28,21:30:00,08:00:00,"MENOMONIE, WI",,L000119,MENOMONIE,46.1,-91.8289,Exact
TOMASEK-MENOMONIE,WIME.MEN.1,FRD,LINK FORD-RICE LAKE,RICE LAKE,WI,54868-7518,22:49:00,22:59:00,10,56,21:30:00,08:00:00,"MENOMONIE, WI",,L000118,MENOMONIE,45.4747,-91.7557,Exact
TOMASEK-MENOMONIE,WIME.MEN.1,FRD,MEDFORD MOTORS INC,MEDFORD,WI,54451-1750,03:30:00,03:40:00,10,28,21:30:00,10:00:00,"MENOMONIE, WI",,L000087,MENOMONIE,45.1379,-90.348,Exact
TOMASEK-MENOMONIE,WIME.MEN.1,FRD,SWANT GRABER FORD,BARRON,WI,54812-8791,22:19:00,22:29:00,10,28,21:30:00,08:00:00,"MENOMONIE, WI",,L000193,MENOMONIE,45.4013,-91.8285,Exact
TOMASEK-MENOMONIE,WIME.MEN.1,FRD,TIMBER FM HAYWARD,HAYWARD,WI,54843-7186,01:01:00,01:11:00,10,28,21:30:00,08:00:00,"MENOMONIE, WI",,L000063,MENOMONIE,45.9854,-91.5367,Exact
TOMASEK-MENOMONIE,WIME.MEN.1,FRD,TOYCEN FORD,CHIPPEWA FALLS,WI,54729,04:53:00,05:03:00,10,28,21:30:00,08:00:00,"MENOMONIE, WI",,L000204,MENOMONIE,44.9222,-91.3714,Exact
TOMASEK-MENOMONIE,WIME.MEN.1,GM,"DON JOHNSON'S HAYWARD MOTORS, INC.",HAYWARD,WI,54843-4000,01:22:00,01:32:00,10,112,21:00:00,08:00:00,"MENOMONIE, WI",,L901164,HUDSON,46.0219,-91.4708,Exact
TOMASEK-MENOMONIE,WIME.MEN.2,CHR,ARCADIA MOTORS,ARCADIA,WI,54612-1114,06:47:00,06:57:00,10,28,00:30:00,08:00:00,"MENOMONIE, WI",,L001058,MINNEAPOLIS,44.2542,-91.5074,Exact
TOMASEK-MENOMONIE,WIME.MEN.2,CNH,JOHNSON TRACTOR INC.,ARCADIA,WI,54612-2702,07:19:00,07:25:00,6,38,20:00:00,08:30:00,"MENOMONIE, WI",,L901449,LEBANON,44.2466,-91.4705,Exact
TOMASEK-MENOMONIE,WIME.MEN.2,DRE,TRACTOR CENTRAL,ARCADIA,WI,54612-1902,07:05:00,07:15:00,10,160,23:30:00,08:00:00,"MENOMONIE, WI",,L001880,MILAN LW,44.2482,-91.4743,Exact
TOMASEK-MENOMONIE,WIME.MEN.2,DRE,TRACTOR CENTRAL,MONDOVI,WI,54755-1722,05:49:00,06:04:00,15,108,21:30:00,08:00:00,"MENOMONIE, WI",,L001915,MILAN LW,44.5704,-91.6528,Exact
TOMASEK-MENOMONIE,WIME.MEN.2,DRE,TRACTOR CENTRAL,MENOMONIE,WI,547519133,04:13:00,04:32:00,19,124,21:30:00,08:00:00,"MENOMONIE, WI",,L001912,MILAN LW,44.9226,-91.9271,Exact
TOMASEK-MENOMONIE,WIME.MEN.2,DRE,TRACTOR CENTRAL,DURAND,WI,54736,05:03:00,05:22:00,19,194,21:30:00,08:00:00,"MENOMONIE, WI",,L001895,MILAN LW,44.6356,-91.9967,Exact
TOMASEK-MENOMONIE,WIME.MEN.2,KUB,JOHNSON TRACTOR,ARCADIA,WI,54612-2702,07:25:00,07:26:00,1,56,20:00:00,08:30:00,"MENOMONIE, WI",,L902799,EDGERTON,44.2466,-91.4705,Exact
TOMASEK-MENOMONIE,WIME.MEN.3,AGCO,Link Implement,Ridgeland,WI,54763,07:20:00,07:25:00,5,14,03:00:00,09:00:00,"MENOMONIE, WI",,L002234,BATAVIA,45.2115,-91.8863,Exact
TOMASEK-MENOMONIE,WIME.MEN.3,CNH,BARIBEAU IMPLEMENT COMPANY INC.,RICE LAKE,WI,54868,06:15:00,06:22:00,7,55,03:00:00,08:00:00,"MENOMONIE, WI",,L901460,LEBANON,45.4481,-91.735,Exact
TOMASEK-MENOMONIE,WIME.MEN.3,CNH,BARIBEAU IMPLEMENT COMPANY INC.,SAINT CROIX FALLS,WI,54024-8327,04:55:00,05:02:00,7,35,03:00:00,08:00:00,"MENOMONIE, WI",,L901461,LEBANON,45.3986,-92.6139,Exact
TOMASEK-MENOMONIE,WIME.MEN.3,CNH,JOHNSON TRACTOR INC.,BALDWIN,WI,54002-5526,03:37:00,03:43:00,6,59,03:00:00,08:00:00,"MENOMONIE, WI",,L901450,LEBANON,44.9793,-92.375,Exact
TOMASEK-MENOMONIE,WIME.MEN.3,DRE,Midwest Machinery,TURTLE LAKE,WI,54889-9177,05:32:00,05:42:00,10,112,03:00:00,08:00:00,"MENOMONIE, WI",,L001938,MILAN LW,45.3963,-92.1667,Exact
TOMASEK-MENOMONIE,WIME.MEN.3,DRE,TRACTOR CENTRAL,CAMERON,WI,54822-9457,06:29:00,06:49:00,20,336,03:00:00,08:00:00,"MENOMONIE, WI",,L001885,MILAN LW,45.4248,-91.7351,Exact
TOMASEK-MENOMONIE,WIME.MEN.3,FRD,JOHNSON FORD,NEW RICHMOND,WI,54017-7258,04:11:00,04:21:00,10,28,21:30:00,08:00:00,"MENOMONIE, WI",,L000181,MENOMONIE,45.137,-92.5295,Exact
TOMASEK-MENOMONIE,WIME.MEN.3,KUB,JOHNSON TRACTOR,BALDWIN,WI,54002-5526,03:43:00,03:44:00,1,56,03:00:00,08:00:00,"MENOMONIE, WI",,L902796,EDGERTON,44.9793,-92.375,Exact
TOMASEK-MENOMONIE,WIME.MEN.4,CNH,"CHILI IMPLEMENT CO., INC.",CHILI,WI,54420-8928,06:15:00,06:24:00,9,28,03:00:00,08:00:00,"MENOMONIE, WI",,L001465,LEBANON,44.6225,-90.3564,Exact
TOMASEK-MENOMONIE,WIME.MEN.4,CNH,"SWIDERSKI EQUIPMENT, INC.",THORP,WI,54771,04:02:00,04:09:00,7,61,03:00:00,09:00:00,"MENOMONIE, WI",,L901462,LEBANON,44.957,-90.7933,Exact
TOMASEK-MENOMONIE,WIME.MEN.4,DRE,"POWER-PAC, INC.",MARSHFIELD,WI,54449-5218,05:37:00,05:52:00,15,84,03:00:00,08:00:00,"MENOMONIE, WI",,L001908,MILAN LW,44.6414,-90.1781,Exact
TOMASEK-MENOMONIE,WIME.MEN.4,DRE,REISTERER & SCHNELL,STRATFORD,WI,54484-8400,05:02:00,05:14:00,12,208,21:30:00,08:00:00,"MENOMONIE, WI",,L001935,MILAN LW,44.7998,-90.0686,Exact
TOMASEK-MENOMONIE,WIME.MEN.4,DRE,TRACTOR CENTRAL,GRANTON,WI,54436,06:43:00,06:58:00,15,112,03:00:00,08:00:00,"MENOMONIE, WI",,L001898,MILAN LW,44.5781,-90.4553,Exact
TOMASEK-MENOMONIE,WIME.MEN.4,KUB,"CHILI IMPLEMENT CO., INC.",CHILI,WI,54420-8928,06:24:00,06:25:00,1,56,03:00:00,08:00:00,"MENOMONIE, WI",,L902741,EDGERTON,44.6225,-90.3564,Exact
TOMASEK-MENOMONIE,WIME.MEN.5,CNH,"LULICH IMPLEMENT, INCORPORATED",MASON,WI,54856-3980,07:46:00,07:53:00,7,35,03:00:00,09:30:00,"MENOMONIE, WI",,L901457,LEBANON,46.5149,-91.0528,Exact
TOMASEK-MENOMONIE,WIME.MEN.5,DRE,McCoy Construction,CHIPPEWA FALLS,WI,54729-8300,03:32:00,03:47:00,15,224,03:00:00,08:00:00,"MENOMONIE, WI",,L001889,MILAN LW,44.8679,-91.4462,Exact
TOMASEK-MENOMONIE,WIME.MEN.5,DRE,TRACTOR CENTRAL,CHIPPEWA FALLS,WI,54729-6296,04:06:00,04:26:00,20,336,03:00:00,08:00:00,"MENOMONIE, WI",,L001888,MILAN LW,44.9624,-91.4238,Exact
TOMASEK-MENOMONIE,WIME.MEN.5,DRE,TRACTOR CENTRAL,SHELDON,WI,54766,05:15:00,05:25:00,10,112,03:00:00,08:00:00,"MENOMONIE, WI",,L001933,MILAN LW,45.3107,-90.9576,Exact
TOMASEK-MENOMONIE,WIME.MEN.5,GM,DON JOHNSON'S LADYSMITH MOTORS,LADYSMITH,WI,54848-1253,05:53:00,06:03:00,10,112,21:00:00,08:00:00,"MENOMONIE, WI",,L901165,HUDSON,45.4707,-91.1111,Exact
TOMASEK-MENOMONIE,WIME.MEN.DSO.LH.1,HUB,ST PAUL DOCK,ST PAUL,WI,55117,00:00:00,01:30:00,90,0,,01:30:00,"MENOMONIE, WI",,HUB-SAINT PAUL,,44.9838,-93.0916,Exact
TOMASEK-MENOMONIE,WIME.MEN.GB LH,AGCO,"SWIDERSKI EQUIPMENT, INC.",WAUSAU,WI,54401-9716,05:18:00,05:19:00,1,28,21:30:00,08:00:00,"MENOMONIE, WI",,L002246,BATAVIA,45.025,-89.6804,Exact
TOMASEK-MENOMONIE,WIME.MEN.GB LH,CNH,"CHEROKEE GARAGE, INC.",COLBY,WI,54421,06:40:00,06:47:00,7,49,20:00:00,08:00:00,"MENOMONIE, WI",,L901452,LEBANON,44.9018,-90.2174,Exact
TOMASEK-MENOMONIE,WIME.MEN.GB LH,CNH,"MILLER-BRADFORD & RISBERG, INC.",MARATHON,WI,54448-9000,06:02:00,06:09:00,7,37,20:00:00,08:00:00,"MENOMONIE, WI",,L901456,LEBANON,44.9413,-89.8352,Exact
TOMASEK-MENOMONIE,WIME.MEN.GB LH,CNH,SERVICE MOTOR CO INC,WAUSAU,WI,54401-8329,05:30:00,05:36:00,6,28,21:30:00,08:00:00,"MENOMONIE, WI",,L001535,LEBANON,45.027,-89.689,Exact
TOMASEK-MENOMONIE,WIME.MEN.GB LH,CNH,"SWIDERSKI EQUIPMENT, INC.",WAUSAU,WI,54401-9716,05:19:00,05:26:00,7,56,21:30:00,08:00:00,"MENOMONIE, WI",,L001533,LEBANON,45.025,-89.6804,Exact
TOMASEK-MENOMONIE,WIME.MEN.GB LH,FRD,ABBY FORD,ABOTTSFORD,WI,54405,07:05:00,07:15:00,10,28,21:30:00,09:00:00,"MENOMONIE, WI",,L903461,MENOMONIE,44.953,-90.3156,Exact
TOMASEK-MENOMONIE,WIME.MEN.GB LH,FRD,KOCOUREK FLM,WAUSAU,WI,54401-1808,04:37:00,05:07:00,30,168,21:30:00,10:00:00,"MENOMONIE, WI",,L000015,MENOMONIE,44.9972,-89.6611,Exact
TOMASEK-MENOMONIE,WIME.MEN.GB LH,HUB,GREEN BAY DOCK,GREEN BAY,WI,54304-5652,00:48:00,02:00:00,72,0,21:30:00,08:00:00,"MENOMONIE, WI",,HUB54304,,44.4722,-88.0958,Exact
TOMASEK-MENOMONIE,WIME.MEN.GB LH,HYU,Kocourek Hyundai,WAUSAU,WI,54401-7687,03:35:00,03:45:00,10,56,21:30:00,08:00:00,"MENOMONIE, WI",,L000752,CHICAGO,44.9156,-89.6518,MANUAL
TOMASEK-MENOMONIE,WIME.MEN.GB LH,KIA,Kocourek Kia,WAUSAU,WI,54401,04:22:00,04:37:00,15,56,21:30:00,08:00:00,"MENOMONIE, WI",,L000573,CHICAGO,44.997,-89.6612,Exact
TOMASEK-MENOMONIE,WIME.MEN.GB LH,KUB,SERVICE MOTOR CO INC,WAUSAU,WI,54401-8329,05:36:00,05:37:00,1,56,21:30:00,08:00:00,"MENOMONIE, WI",,L902787,EDGERTON,45.027,-89.689,Exact
TOMASEK-MENOMONIE,WIME.MEN.GB LH,TOY,Toyota of Wausau,WAUSAU,WI,54401-1805,04:01:00,04:21:00,20,112,21:30:00,07:00:00,"MENOMONIE, WI",,L000387,CHICAGO,44.9984,-89.6619,Exact
TOMASEK-ROCK ISLAND-DSO LH,ILRO.SHUTTLE 1,9DRE,DEERE MILAN PDC,MILAN,IL,61264-2608,11:51:00,12:36:00,45,0,04:00:00,23:59:00,"ROCK ISLAND, IL",,9DREIL,MILAN MW,41.4527,-90.544,Exact
TOMASEK-ROCK ISLAND-DSO LH,ILRO.SHUTTLE 1,9DRE,DEERE MILAN PDC,MILAN,IL,61264-2608,13:28:00,14:13:00,45,0,04:00:00,23:59:00,"ROCK ISLAND, IL",,9DREIL,MILAN MW,41.4527,-90.544,Exact
TOMASEK-ROCK ISLAND-DSO LH,ILRO.SHUTTLE 2,9DRE,DEERE MILAN PDC,MILAN,IL,61264-2608,04:33:00,05:33:00,60,0,04:00:00,23:59:00,"ROCK ISLAND, IL",,9DREIL,MILAN MW,41.4527,-90.544,Exact
